stop_id,stop_code,stop_name,stop_desc,stop_lat,stop_lon,zone_id,stop_url,location_type,parent_station,stop_timezone,wheelchair_boarding,platform_code
StopArea:8711610,,GARE DE MEAUX,,48.957042694,2.8739719391,,,1,,,0,
StopArea:93:1501,,Bas d'Orgemont,,48.955177307,2.8705320358,,,1,,,0,
StopArea:93:1519,,Bel Air,,48.952907562,2.8682229519,,,1,,,0,
StopArea:93:1530,,Parmentier,,48.948295593,2.8659310341,,,1,,,0,
StopArea:93:1507,,Sucrerie,,48.946212769,2.8666670322,,,1,,,0,
StopArea:93:1509,,Avenue du Parc,,48.943840027,2.864166975,,,1,,,0,
StopArea:93:1521,,Rue Bouchard,,48.942409515,2.8610548973,,,1,,,0,
StopArea:93:1523,,Rue de Lagny,,48.940139771,2.858494997,,,1,,,0,
StopArea:93:1527,,Marronniers,,48.940349579,2.8616080284,,,1,,,0,
StopArea:93:1529,,Les Cottages,,48.941772461,2.8632450104,,,1,,,0,
StopArea:93:1537,,Souterrain,,48.956630707,2.8726079464,,,1,,,0,
StopArea:47:14805,,Les Bruyères,,48.918968201,2.9118540287,,,1,,,0,
StopArea:47:3768,,Collot,,48.919826508,2.9085021019,,,1,,,0,
StopArea:47:3781,,La Roseraie,,48.922714233,2.9063251019,,,1,,,0,
StopArea:93:1706,,Galliéni,,48.925983429,2.9050440788,,,1,,,0,
StopArea:47:3770,,Clos Benoît,,48.925708771,2.899946928,,,1,,,0,
StopArea:47:3782,,Mairie,,48.928752899,2.8971660137,,,1,,,0,
StopArea:47:3764,,Château,,48.932853699,2.8901629448,,,1,,,0,
StopArea:47:14448,,Bordes Rouges,,48.93605423,2.8875780106,,,1,,,0,
StopArea:93:1720,,Marcel Pagnol,,48.939804077,2.8854899406,,,1,,,0,
StopArea:52:3777,,La Croix,,48.942367554,2.8841080666,,,1,,,0,
StopArea:52:14705,,St Pères,,48.945545197,2.8805980682,,,1,,,0,
StopArea:93:1286,,Cornillon,,48.952056885,2.8796019554,,,1,,,0,
StopArea:47:3194,,Médiathèque,,48.954795837,2.8791360855,,,1,,,0,
StopArea:47:14607,,Poste Allende,,48.95741272,2.8824748993,,,1,,,0,
StopArea:47:3103,,Cité Administrative,,48.955852509,2.8891460896,,,1,,,0,
StopArea:93:1316,,08 Mai 1945 / 11 Novembre 1918,,48.95362854,2.8936669827,,,1,,,0,
StopArea:47:14895,,Octroi,,48.957546234,2.8942410946,,,1,,,0,
StopArea:47:3151,,Grosse Pierre,,48.962547302,2.8974070549,,,1,,,0,
StopArea:47:3172,,La Corniche,,48.967628479,2.9003999233,,,1,,,0,
StopArea:93:1239,,Musée de la Grande Guerre,,48.973007202,2.9035880566,,,1,,,0,
StopArea:47:14831,,Hauts de Chantereine,,48.973049164,2.9036018848,,,1,,,0,
StopArea:93:1277,,Vergers du Roy,,48.975696564,2.8969140053,,,1,,,0,
StopArea:93:1127,,Belvédère,,48.972892761,2.899545908,,,1,,,0,
StopArea:47:3198,,Marronniers,,48.956417084,2.8879311085,,,1,,,0,
StopArea:93:1225,,Les Platanes,,48.950408936,2.9286251068,,,1,,,0,
StopArea:93:1147,,Charles Tellier,,48.951755524,2.9303328991,,,1,,,0,
StopArea:93:1230,,Louis Fournier,,48.952640533,2.930036068,,,1,,,0,
StopArea:93:1176,,Graham Bell,,48.955631256,2.9314410686,,,1,,,0,
StopArea:93:1282,,Zone Artisanale,,48.957305908,2.9312560558,,,1,,,0,
StopArea:93:1228,,Lotissement,,48.957138062,2.9255149364,,,1,,,0,
StopArea:93:1371,,Georges Claude Quai 2,,48.956867218,2.9141509533,,,1,,,0,
StopArea:93:1376,,Chevalier Bayard,,48.954883575,2.9114949703,,,1,,,0,
StopArea:93:1101,,Adam de la Halle,,48.954452515,2.9068369865,,,1,,,0,
StopArea:93:1170,,Ecluse St Lazare,,48.95500946,2.9023809433,,,1,,,0,
StopArea:93:1142,,Chappe,,48.951389313,2.8999130726,,,1,,,0,
StopArea:93:1359,,Roland Garros,,48.94593811,2.8992528915,,,1,,,0,
StopArea:93:1154,,Collège Dunant,,48.946334839,2.8968560696,,,1,,,0,
StopArea:93:1273,,Saint Jean de Bosco,,48.949172974,2.8942120075,,,1,,,0,
StopArea:93:1309,,Henri Moissan,,48.958789825,2.8745949268,,,1,,,0,
StopArea:93:1538,,Cité Technique,,48.955673218,2.8651061058,,,1,,,0,
StopArea:93:1402,,Les Saisons de Meaux,,48.958683014,2.8617930412,,,1,,,0,
StopArea:93:1255,,Pierris,,48.950458527,2.893871069,,,1,,,0,
StopArea:93:1117,,Bâtiment F,,48.94562149,2.9020059109,,,1,,,0,
StopArea:93:1367,,Georges Claude Quai de dépose,,48.956768036,2.9166069031,,,1,,,0,
StopArea:47:3171,,Jean Vilar,,48.954872131,2.8942019939,,,1,,,0,
StopArea:93:1249,,Parc Chenonceaux,,48.951629639,2.9045410156,,,1,,,0,
StopArea:93:1163,,Cornouailles,,48.951583862,2.9088120461,,,1,,,0,
StopArea:93:1264,,Rond Point,,48.951126099,2.9121630192,,,1,,,0,
StopArea:93:1120,,Bazin,,48.951087952,2.9174780846,,,1,,,0,
StopArea:93:1128,,Berry,,48.952926636,2.9216330051,,,1,,,0,
StopArea:93:1119,,Centre Commercial Baudelaire,,48.954452515,2.9161849022,,,1,,,0,
StopArea:93:1369,,Georges Claude Quai 1,,48.956859589,2.9141380787,,,1,,,0,
StopArea:93:1137,,Centre Commercial,,48.954391479,2.915719986,,,1,,,0,
StopArea:93:1109,,Artois,,48.951816559,2.9087729454,,,1,,,0,
StopArea:93:1107,,Anjou,,48.951824188,2.9034240246,,,1,,,0,
StopArea:47:3167,,Bouvin,,48.952613831,2.9113929272,,,1,,,0,
StopArea:93:1158,,Concorde,,48.948604584,2.9105460644,,,1,,,0,
StopArea:93:1144,,Charcot,,48.946678162,2.9061510563,,,1,,,0,
StopArea:93:1152,,Claudel,,48.947502136,2.9003338814,,,1,,,0,
StopArea:93:1252,,Paul Barennes,,48.951984406,2.8969790936,,,1,,,0,
StopArea:6:435,,Henri IV,,48.959339142,2.883054018,,,1,,,0,
StopArea:93:1212,,Jean rose,,48.962001801,2.8795289993,,,1,,,0,
StopArea:47:3217,,Pinteville,,48.961986542,2.8755259514,,,1,,,0,
StopArea:93:1451,,Bonne Etoile,,48.971935272,2.8691079617,,,1,,,0,
StopArea:93:1475,,Jean Renoir,,48.975456238,2.8712599277,,,1,,,0,
StopArea:47:1769,,Collège George Sand,,48.979560852,2.8741519451,,,1,,,0,
StopArea:93:1453,,Bourg,,48.978996277,2.8771131039,,,1,,,0,
StopArea:93:1463,,Fayottes,,48.976818085,2.8740050793,,,1,,,0,
StopArea:93:1467,,Les Vignes,,48.977542877,2.8726611137,,,1,,,0,
StopArea:93:1469,,Place Rostand,,48.976512909,2.8701241016,,,1,,,0,
StopArea:47:1766,,Centre Commercial,,48.975894928,2.8657469749,,,1,,,0,
StopArea:93:1262,,Prairie de Châage,,48.963119507,2.8731319904,,,1,,,0,
StopArea:93:1250,,Parc Frot,,48.966133118,2.8731629848,,,1,,,0,
StopArea:93:1122,,Beauséjour,,48.968971252,2.8784749508,,,1,,,0,
StopArea:93:1138,,Châage,,48.969577789,2.8822898865,,,1,,,0,
StopArea:93:1271,,Saint Faron,,48.969200134,2.8853778839,,,1,,,0,
StopArea:93:1211,,Hôpital,,48.967292786,2.8841159344,,,1,,,0,
StopArea:93:2220,,Centre,,48.942867279,2.9873280525,,,1,,,0,
StopArea:93:2074,,Brinches,,48.93755722,2.9631009102,,,1,,,0,
StopArea:93:2076,,Rue de Brinches,,48.938941956,2.940294981,,,1,,,0,
StopArea:93:2072,,Centre,,48.937404633,2.9367640018,,,1,,,0,
StopArea:93:2070,,Les Côteaux,,48.940822601,2.9373829365,,,1,,,0,
StopArea:93:1905,,Collège,,48.951385498,2.9426839352,,,1,,,0,
StopArea:93:1915,,Mairie,,48.95867157,2.9473071098,,,1,,,0,
StopArea:47:5084,,Eglise,,48.957698822,2.946377039,,,1,,,0,
StopArea:47:3229,,Route de Poincy,,48.957450867,2.9363720417,,,1,,,0,
StopArea:93:1374,,Georges Claude Quai 4,,48.95703125,2.9181520939,,,1,,,0,
StopArea:93:1373,,Georges Claude Quai 3,,48.956874847,2.9182729721,,,1,,,0,
StopArea:47:5091,,Parc,,48.957759857,2.9497799873,,,1,,,0,
StopArea:93:1540,,IMA,,48.954223633,2.8605129719,,,1,,,0,
StopArea:93:1543,,Parc d'Activité du Pays de Meaux,,48.948455811,2.8579099178,,,1,,,0,
StopArea:93:1401,,Prison,,48.963104248,2.8636670113,,,1,,,0,
StopArea:93:1514,,Les Patios,,48.954826355,2.8644149303,,,1,,,0,
StopArea:93:1174,,Frères Lumières,,48.962287903,2.9178700447,,,1,,,0,
StopArea:93:1166,,Daguerre,,48.963436127,2.9157259464,,,1,,,0,
StopArea:93:1112,,Avenue de Meaux,,48.966644287,2.9210989475,,,1,,,0,
StopArea:93:1801,,Mairie,,48.968578339,2.9345788956,,,1,,,0,
StopArea:93:2131,,Place des Tilleuls,,48.941532135,2.8045248985,,,1,,,0,
StopArea:93:2132,,Tennis,,48.939247131,2.8075869083,,,1,,,0,
StopArea:93:2230,,Eglise,,48.930717468,2.8089148998,,,1,,,0,
StopArea:93:2232,,Château,,48.929195404,2.8090240955,,,1,,,0,
StopArea:93:2108,,Tourneville,,48.914981842,2.8145320415,,,1,,,0,
StopArea:93:2101,,Murs Blancs,,48.912700653,2.829761982,,,1,,,0,
StopArea:93:2103,,Mairie,,48.911617279,2.8257980347,,,1,,,0,
StopArea:93:2105,,Bois du Chêne,,48.90335083,2.8209619522,,,1,,,0,
StopArea:93:2107,,Rue Pât des Vignes,,48.913021088,2.8164710999,,,1,,,0,
StopArea:47:1947,,Le Morin,,48.908405304,2.8148059845,,,1,,,0,
StopArea:8711632,,GARE D'ESBLY,,48.902999878,2.8113870621,,,1,,,0,
StopArea:93:1360,,Avenue du Maréchal Foch,,48.952407837,2.8855550289,,,1,,,0,
StopArea:93:1362,,Avenue de la Marne,,48.948890686,2.8889770508,,,1,,,0,
StopArea:93:2187,,Jean Renoir,,49.000617981,2.9569530487,,,1,,,0,
StopArea:93:2193,,GERMIGNY - Rue Degas,,48.996349335,2.9549219608,,,1,,,0,
StopArea:93:2184,,Résidence de la Marne,,48.994476318,2.9568181038,,,1,,,0,
StopArea:93:2182,,Mairie,,48.993652344,2.9456779957,,,1,,,0,
StopArea:93:2191,,Château,,48.992996216,2.9412660599,,,1,,,0,
StopArea:93:2180,,Route de Trilport,,48.98992157,2.9427530766,,,1,,,0,
StopArea:93:1912,,Croix l'Evêque,,48.967803955,2.9489099979,,,1,,,0,
StopArea:93:1910,,Langelot,,48.965957642,2.9493649006,,,1,,,0,
StopArea:93:1922,,Rue de Germigny,,48.960914612,2.9484660625,,,1,,,0,
StopArea:93:1288,,Fauvettes,,48.948329926,2.8800330162,,,1,,,0,
StopArea:47:3779,,La Hayette,,48.942806244,2.8794651031,,,1,,,0,
StopArea:47:15007,,Les Buttes aux Lièvres,,48.938335419,2.8770880699,,,1,,,0,
StopArea:93:1612,,Madeleine,,48.941146851,2.8752989769,,,1,,,0,
StopArea:93:1604,,Le Clos Godet,,48.941928864,2.8762760162,,,1,,,0,
StopArea:93:1614,,Les Sablons,,48.939682007,2.8724529743,,,1,,,0,
StopArea:93:1632,,Les Voûtes,,48.936653137,2.8702940941,,,1,,,0,
StopArea:93:1626,,Cimetière,,48.931190491,2.8622310162,,,1,,,0,
StopArea:93:1601,,Avenue de la Brie,,48.928455353,2.8632600307,,,1,,,0,
StopArea:93:1621,,Mozart,,48.927070618,2.8648281097,,,1,,,0,
StopArea:93:1623,,Petits Clos,,48.925426483,2.8672249317,,,1,,,0,
StopArea:93:1625,,Raspail,,48.924633026,2.8633708954,,,1,,,0,
StopArea:93:1617,,Les Vendangeuses,,48.922477722,2.861536026,,,1,,,0,
StopArea:93:1603,,Carnot,,48.92509079,2.8592159748,,,1,,,0,
StopArea:93:1619,,Mairie,,48.926963806,2.8592219353,,,1,,,0,
StopArea:93:1635,,Pasteur Marguerite,,48.929344177,2.8608551025,,,1,,,0,
StopArea:59563,,Créteil l'Echat / Hôpital Henri Mondor,,48.796546936,2.448595047,,,1,,,0,
StopArea:59:6741296,,CROUS,,48.841766357,2.584017992,,,1,,,0,
StopArea:59:6741356,,Ampère,,48.844825745,2.5830049515,,,1,,,0,
StopArea:59:6741352,,Bois de Grâce,,48.848308563,2.5855100155,,,1,,,0,
StopArea:59:6741336,,Mairie,,48.85200119,2.6011919975,,,1,,,0,
StopArea:92:4,,QUATRE PAVES,,48.851631165,2.6213839054,,,1,,,0,
StopArea:8775837,,GARE DE TORCY,,48.838947296,2.6546440125,,,1,,,0,
StopArea:8768211,,GARE DE YERRES,,48.706924438,2.4832038879,,,1,,,0,
StopArea:32:45404,,Place Gambetta,,48.701534271,2.4858000278,,,1,,,0,
StopArea:32:45209,,PAVILLON FLORE,,48.700782776,2.4666600227,,,1,,,0,
StopArea:43:276,,La Forêt,,48.696212769,2.4559628963,,,1,,,0,
StopArea:43:150,,Prairie de l'Oly,,48.703411102,2.4417569637,,,1,,,0,
StopArea:8799150,,Patte d'Oie,,48.703239441,2.4299829006,,,1,,,0,
StopArea:43:240,,Salvador Allende,,48.69392395,2.4302179813,,,1,,,0,
StopArea:43:101,,Orée de Sénart,,48.686153412,2.4181489944,,,1,,,0,
StopArea:8799149,,Eglise,,48.686107635,2.4089739323,,,1,,,0,
StopArea:8754524,,GARE DE JUVISY,,48.689693451,2.3827369213,,,1,,,0,
StopArea:59:6251971,,Cottage,,48.705619812,2.3931999207,,,1,,,0,
StopArea:59:5816781,,Albert Sarrault,,48.708515167,2.3828508854,,,1,,,0,
StopArea:59844,,Porte de L'Essonne,,48.714111328,2.3718140125,,,1,,,0,
StopArea:8749571,,Aéroport Orly 1-2-3 (Ouest),,48.728294373,2.3600990772,,,1,,,0,
StopArea:59841,,Orly 4 / sortie k,,48.729152679,2.3691010475,,,1,,,0,
StopArea:43:93,,Marché,,48.686069489,2.409183979,,,1,,,0,
StopArea:8754619,,GARE DE PONT DE RUNGIS,,48.746879578,2.3709928989,,,1,,,0,
StopArea:59:4314838,,LA BELLE EPINE,,48.755401611,2.3689088821,,,1,,,0,
StopArea:91:29,,Marché International de Rungis,,48.763092041,2.358109951,,,1,,,0,
StopArea:32:45213,,SAINT-JOSEPH,,48.699745178,2.4683010578,,,1,,,0,
StopArea:8738102,,PORTE MAILLOT,,48.878063202,2.2823529243,,,1,,,0,
StopArea:90:2,,Aéroport Paris Beauvais,,49.459335327,2.1128840446,,,1,,,0,
StopArea:8738668,,GARE DES MUREAUX,,48.992904663,1.9129179716,,,1,,,0,
StopArea:21:450,,Bougimonts,,48.986328125,1.9133330584,,,1,,,0,
StopArea:21:822,,Vigne Blanche,,48.981784821,1.9122829437,,,1,,,0,
StopArea:8798751,,Les Sablons,,48.977077484,1.9148060083,,,1,,,0,
StopArea:89:16,,Chamoiserie / Comtesse RD43,,48.973209381,1.917750001,,,1,,,0,
StopArea:89:18,,Presle,,48.950519562,1.9279899597,,,1,,,0,
StopArea:21:404,,Conforama,,48.926551819,1.9870970249,,,1,,,0,
StopArea:23:559,,Rond Point de Grignon,,48.842887878,1.9445929527,,,1,,,0,
StopArea:8739342,,GARE DE PLAISIR GRIGNON,,48.831497192,1.9439949989,,,1,,,0,
StopArea:50:522,,Rond Point du Petit Saint Cloud,,48.829498291,1.9511510134,,,1,,,0,
StopArea:41:6547,,Prague,,48.795459747,1.9680229425,,,1,,,0,
StopArea:22:9670,,De Lattre de Tassigny,,48.797668457,1.9747589827,,,1,,,0,
StopArea:41:6060,,Gay Lussac,,48.792182922,1.9750449657,,,1,,,0,
StopArea:89:33,,Base de Loisirs,,48.783557892,1.9928029776,,,1,,,0,
StopArea:41:6652,,Île de Loisirs - Centre équestre,,48.780586243,2.0028190613,,,1,,,0,
StopArea:8739384,,Gare de Saint Quentin En Yvelines,,48.787742615,2.0451760292,,,1,,,0,
StopArea:23:382,,Toys'R'us,,48.927127838,1.9859900475,,,1,,,0,
StopArea:8738665,,GARE DE VERNOUILLET VERNEUIL,,48.980899811,1.9824409485,,,1,,,0,
StopArea:58:418,,Jean Jaurès,,48.974708557,1.9868550301,,,1,,,0,
StopArea:83:600,,LA DEFENSE TERMINAL JULES VERNE,,48.891345978,2.2421159744,,,1,,,0,
StopArea:89:4,,LA DEFENSE TERMINAL JULES VERNE,,48.891273499,2.2421770096,,,1,,,0,
StopArea:21:402,,Art de Vivre,,48.925437927,1.9913549423,,,1,,,0,
StopArea:8727146,,Aéroport CDG 1 Terminal 3 - Roissypole,,49.010368347,2.5595319271,,,1,,,0,
StopArea:20:482,,Zone Technique,,49.011325836,2.5329010487,,,1,,,0,
StopArea:6:404,,Marie Feuchère,,49.045948029,2.5093119144,,,1,,,0,
StopArea:6:406,,Parc,,49.047927856,2.5064890385,,,1,,,0,
StopArea:88:1977,,Square Degas,,49.043518066,2.5042939186,,,1,,,0,
StopArea:8727625,,GARE DE LOUVRES,,49.049404144,2.5016829967,,,1,,,0,
StopArea:88:871,,La pépinière,,49.054122925,2.5015120506,,,1,,,0,
StopArea:88:893,,Route de Marly,,49.058071136,2.5005130768,,,1,,,0,
StopArea:88:891,,Gymnase,,49.061309814,2.499505043,,,1,,,0,
StopArea:88:888,,Salle des Fêtes,,49.075977325,2.4988119602,,,1,,,0,
StopArea:88:883,,Mairie,,49.078659058,2.4991281033,,,1,,,0,
StopArea:88:886,,Place du Vert Clos,,49.080207825,2.5028951168,,,1,,,0,
StopArea:88:878,,Rue des Prés,,49.083240509,2.5047240257,,,1,,,0,
StopArea:88:882,,Hameau de prieuré,,49.084465027,2.5041399002,,,1,,,0,
StopArea:88:880,,Ecole de la Garenne,,49.084953308,2.5018699169,,,1,,,0,
StopArea:88:876,,Cimetière,,49.086700439,2.5008499622,,,1,,,0,
StopArea:88:881,,Hameau des Cèdres,,49.090023041,2.5010519028,,,1,,,0,
StopArea:88:885,,Place du 19 mars,,49.092422485,2.5021400452,,,1,,,0,
StopArea:88:781,,Poteau de Marly,,49.09419632,2.5025680065,,,1,,,0,
StopArea:88:773,,Bellevue,,49.094638824,2.4991850853,,,1,,,0,
StopArea:88:779,,Haute Grève,,49.096416473,2.5035281181,,,1,,,0,
StopArea:88:783,,Rue de l'Epine,,49.098621368,2.5048220158,,,1,,,0,
StopArea:88:769,,Avenue du Large,,49.099189758,2.5094630718,,,1,,,0,
StopArea:88:777,,Gendarmerie,,49.099029541,2.5133280754,,,1,,,0,
StopArea:88:775,,Centre Commercial / Mairie,,49.1001091,2.5158770084,,,1,,,0,
StopArea:88:771,,Beaumont,,49.102241516,2.5146729946,,,1,,,0,
StopArea:8727626,,GARE DE SURVILLIERS FOSSES,,49.09954071,2.5253369808,,,1,,,0,
StopArea:88:1966,,Centre Commercial de Fosses,,49.100479126,2.5281260014,,,1,,,0,
StopArea:88:1997,,Petit Argenteuil,,49.099273682,2.5326299667,,,1,,,0,
StopArea:88:1995,,Monument,,49.098258972,2.5387289524,,,1,,,0,
StopArea:88:1993,,Mairie,,49.097572327,2.5433239937,,,1,,,0,
StopArea:88:1987,,Colombier,,49.101734161,2.543266058,,,1,,,0,
StopArea:88:1991,,Jardin Frémin,,49.102207184,2.5444169044,,,1,,,0,
StopArea:88:1985,,Chemin du gué,,49.101623535,2.5470969677,,,1,,,0,
StopArea:88:1989,,Les Grands Prés,,49.099704742,2.548101902,,,1,,,0,
StopArea:88:877,,Cité Jardins,,49.091293335,2.5046451092,,,1,,,0,
StopArea:88:874,,Bois Maillard,,49.089134216,2.5083498955,,,1,,,0,
StopArea:88:875,,Collège Françoise Dolto,,49.086219788,2.5061221123,,,1,,,0,
StopArea:88:890,,Général Leclerc,,49.057029724,2.5006330013,,,1,,,0,
StopArea:88:866,,Copenhague,,49.05260849,2.5002679825,,,1,,,0,
StopArea:88:865,,Centre Commercial,,49.050296783,2.4997498989,,,1,,,0,
StopArea:88:1970,,Les Coteaux,,49.02885437,2.4807970524,,,1,,,0,
StopArea:88:863,,Victor Basch,,49.030258179,2.4749109745,,,1,,,0,
StopArea:88:847,,Mairie,,49.032108307,2.4740409851,,,1,,,0,
StopArea:88:1975,,Résidence Ambroise Croizat,,49.036300659,2.4784009457,,,1,,,0,
StopArea:88:837,,La Charmeuse,,49.034229279,2.4719760418,,,1,,,0,
StopArea:88:854,,Les Montagnettes,,49.035900116,2.4702041149,,,1,,,0,
StopArea:88:843,,Ecole Gabriel Péri,,49.038040161,2.4678859711,,,1,,,0,
StopArea:88:845,,Henri Dunant,,49.037059784,2.4638450146,,,1,,,0,
StopArea:88:1972,,Georges Brassens,,49.042984009,2.4673790932,,,1,,,0,
StopArea:88:841,,Descartes,,49.038818359,2.4611430168,,,1,,,0,
StopArea:88:852,,Montgolfier,,49.03899765,2.458190918,,,1,,,0,
StopArea:88:835,,Chapellerie,,49.038036346,2.4554069042,,,1,,,0,
StopArea:88:829,,Ampère Chartrel,,49.035743713,2.4564878941,,,1,,,0,
StopArea:88:861,,Avenue Des Tilleuls,,49.033031464,2.4584391117,,,1,,,0,
StopArea:88:1971,,École Jacques Prévert,,49.030036926,2.4518198967,,,1,,,0,
StopArea:88:1974,,Pablo Picasso,,49.033786774,2.449090004,,,1,,,0,
StopArea:88:839,,Centre de Secours,,49.030227661,2.459966898,,,1,,,0,
StopArea:88:849,,Marché,,49.027973175,2.4615199566,,,1,,,0,
StopArea:88:851,,Marcel Cerdan,,49.023002625,2.4595739841,,,1,,,0,
StopArea:8727624,,GARE DE GOUSSAINVILLE,,49.023647308,2.4624779224,,,1,,,0,
StopArea:88:833,,Carrefour de l'Europe,,49.020969391,2.4647619724,,,1,,,0,
StopArea:88:831,,Calvaire,,49.016048431,2.4694290161,,,1,,,0,
StopArea:88:856,,Le Moulin,,49.011447906,2.4720470905,,,1,,,0,
StopArea:88:926,,Pont Chinois,,49.007873535,2.4717640877,,,1,,,0,
StopArea:88:920,,Les Charmilles,,49.005260468,2.4719350338,,,1,,,0,
StopArea:88:922,,Chemin de St Denis,,49.00762558,2.4763600826,,,1,,,0,
StopArea:88:918,,Avenue Bocquet,,49.010623932,2.4832670689,,,1,,,0,
StopArea:88:930,,La Talmouse,,49.010902405,2.4883220196,,,1,,,0,
StopArea:88:903,,Parc Mail 1,,49.007640839,2.4937291145,,,1,,,0,
StopArea:88:904,,Parc Mail 2,,49.00466156,2.4909329414,,,1,,,0,
StopArea:88:905,,Parc du Moulin,,49.00403595,2.5016260147,,,1,,,0,
StopArea:88:902,,Rue du Noyer,,49.003204346,2.5044100285,,,1,,,0,
StopArea:88:906,,Roissy Parc,,49.005451202,2.5063641071,,,1,,,0,
StopArea:88:896,,Passerelle,,49.003673553,2.5120809078,,,1,,,0,
StopArea:88:908,,Village,,49.003986359,2.5161728859,,,1,,,0,
StopArea:88:894,,Airapolis,,49.006858826,2.5194199085,,,1,,,0,
StopArea:88:898,,Convention,,49.007793427,2.5161859989,,,1,,,0,
StopArea:20:480,,Entretien Nord,,49.01177597,2.5161058903,,,1,,,0,
StopArea:88:596,,Terminal 2- Route de service,,49.003646851,2.5583910942,,,1,,,0,
StopArea:59:7899315,,Rue des Vignes,,49.004615784,2.5481979847,,,1,,,0,
StopArea:7:10509,,Rue du Châpitre,,49.00252533,2.5352389812,,,1,,,0,
StopArea:59:3672164,,Les 2 Cèdres,,49.001838684,2.5281550884,,,1,,,0,
StopArea:7:10502,,Cargo Centre,,48.99836731,2.5261030197,,,1,,,0,
StopArea:8798212,,MARGUILLIERS,,48.994590759,2.5236570835,,,1,,,0,
StopArea:88:542,,Jeune Fille,,48.993934631,2.5263259411,,,1,,,0,
StopArea:88:598,,Rue des rossignols,,48.991176605,2.5266571045,,,1,,,0,
StopArea:59:4146125,,Rue de la Belle Borne,,48.989532471,2.5274939537,,,1,,,0,
StopArea:11:50115910,,Aéroville,,48.99118042,2.5241389275,,,1,,,0,
StopArea:88:858,,Les Olympiades,,49.02179718,2.4559509754,,,1,,,0,
StopArea:88:860,,Sécurité Sociale,,49.02558136,2.4631741047,,,1,,,0,
StopArea:88:1252,,Rue de la Fossette,,49.012588501,2.5855948925,,,1,,,0,
StopArea:6:415,,20 Arpents,,49.019470215,2.5875270367,,,1,,,0,
StopArea:6:416,,Centre,,49.017887115,2.5915360451,,,1,,,0,
StopArea:6:418,,Eglise,,49.017398834,2.5936350822,,,1,,,0,
StopArea:6:420,,Grande Borne,,49.014919281,2.6002140045,,,1,,,0,
StopArea:6:430,,Zone Industrielle Périchet,,49.015621185,2.5917880535,,,1,,,0,
StopArea:6:422,,Rue du Gué,,49.020820618,2.5985701084,,,1,,,0,
StopArea:6:610,,Jeu de Paume,,49.03301239,2.6354470253,,,1,,,0,
StopArea:6:606,,Centre,,49.033790588,2.6394689083,,,1,,,0,
StopArea:6:391,,Belle Etoile,,49.046352386,2.6645491123,,,1,,,0,
StopArea:6:402,,Lycée Charles de Gaulle,,49.047138214,2.6669020653,,,1,,,0,
StopArea:6:394,,Croisement,,49.051071167,2.6709990501,,,1,,,0,
StopArea:6:364,,Trésor public,,49.053249359,2.674849987,,,1,,,0,
StopArea:6:357,,Mairie,,49.053913116,2.6781148911,,,1,,,0,
StopArea:6:362,,St Fiacre,,49.05361557,2.6853320599,,,1,,,0,
StopArea:6:338,,Canada,,49.05620575,2.6960148811,,,1,,,0,
StopArea:6:335,,Bergamottes,,49.058765411,2.6907610893,,,1,,,0,
StopArea:6:349,,Route d'Eve,,49.060703278,2.6858110428,,,1,,,0,
StopArea:6:348,,Dom Ganneron,,49.061653137,2.6814479828,,,1,,,0,
StopArea:6:340,,Collège de l'Europe,,49.063560486,2.6811048985,,,1,,,0,
StopArea:6:345,,Centre Médical,,49.067035675,2.6805410385,,,1,,,0,
StopArea:6:501,,La Jalaise,,49.071178436,2.6774189472,,,1,,,0,
StopArea:6:503,,Mairie,,49.075027466,2.6753380299,,,1,,,0,
StopArea:6:497,,Froids Vents,,49.078113556,2.6759839058,,,1,,,0,
StopArea:6:499,,Guincourt,,49.079650879,2.674052,,,1,,,0,
StopArea:6:496,,Beaupré,,49.081588745,2.6688039303,,,1,,,0,
StopArea:6:342,,Chabannes,,49.061828613,2.6848609447,,,1,,,0,
StopArea:6:351,,Garenne,,49.057601929,2.6879429817,,,1,,,0,
StopArea:6:343,,Châtaigners,,49.05639267,2.6916539669,,,1,,,0,
StopArea:6:355,,Place Jean-Baptiste Delambre,,49.054141998,2.6802430153,,,1,,,0,
StopArea:6:347,,La Corbie,,49.055282593,2.6747059822,,,1,,,0,
StopArea:6:426,,Route Nationale,,49.019729614,2.5867979527,,,1,,,0,
StopArea:88:2026,,Acacias,,49.039207458,2.4666340351,,,1,,,0,
StopArea:88:2027,,Camélinat,,49.040439606,2.4649960995,,,1,,,0,
StopArea:88:2028,,Cachin Blatreux,,49.0417099,2.4629540443,,,1,,,0,
StopArea:7:10485,,Aéroville Belle Borne,,48.989448547,2.5253190994,,,1,,,0,
StopArea:88:565,,Rue du Pavé,,48.987094879,2.532779932,,,1,,,0,
StopArea:7:10781,,Versant Seine,,48.986316681,2.5363609791,,,1,,,0,
StopArea:7:10500,,La Croix,,48.98878479,2.545044899,,,1,,,0,
StopArea:88:1954,,Rue du Sausset,,48.976154327,2.5445680618,,,1,,,0,
StopArea:8798656,,Le Clos Montceleux,,48.954353333,2.5353839397,,,1,,,0,
StopArea:8727144,,GARE DE SEVRAN BEAUDOTTES,,48.947063446,2.5242400169,,,1,,,0,
StopArea:70:50005895,,Kennedy / Charcot,,48.935920715,2.5158250332,,,1,,,0,
StopArea:88:1792,,Freinville Westinghouse,,48.927017212,2.5198419094,,,1,,,0,
StopArea:70:50005195,,Vauban,,48.920593262,2.5261480808,,,1,,,0,
StopArea:59:3682185,,Avenue du Coteau - Ecole Normale,,48.912769318,2.5399680138,,,1,,,0,
StopArea:59:3682229,,Mairie,,48.912017822,2.5491130352,,,1,,,0,
StopArea:59:3682231,,Les Marronniers,,48.912086487,2.5510880947,,,1,,,0,
StopArea:59:3682236,,Emile Zola,,48.906761169,2.557076931,,,1,,,0,
StopArea:59:3682257,,Les Bosquets,,48.904788971,2.5597419739,,,1,,,0,
StopArea:59:4035480,,Tuilerie,,48.90422821,2.5646159649,,,1,,,0,
StopArea:70:50005749,,L'Ermitage,,48.906677246,2.5712020397,,,1,,,0,
StopArea:70:50005772,,Jean Moulin,,48.906730652,2.5764780045,,,1,,,0,
StopArea:88:1753,,Arago,,48.90436554,2.5817289352,,,1,,,0,
StopArea:53:2421,,Rond Point des Sciences,,48.904022217,2.588135004,,,1,,,0,
StopArea:8727646,,GARE DE PERSAN BEAUMONT,,49.147983551,2.2793569565,,,1,,,0,
StopArea:88:1942,,Piscine,,49.145591736,2.2872419357,,,1,,,0,
StopArea:88:1944,,Stade,,49.147296906,2.2937738895,,,1,,,0,
StopArea:88:1938,,Cimetière,,49.136367798,2.3602190018,,,1,,,0,
StopArea:88:1940,,Place de Cutigliano,,49.133415222,2.362539053,,,1,,,0,
StopArea:5:40278,,Fréchot,,49.130023956,2.3699660301,,,1,,,0,
StopArea:88:1952,,Rue de Giez,,49.121807098,2.3954920769,,,1,,,0,
StopArea:8727657,,GARE DE LUZARCHES,,49.117576599,2.4213969707,,,1,,,0,
StopArea:59:6741469,,Puits La Marlière,,49.008533478,2.4012179375,,,1,,,0,
StopArea:88:2019,,Henri Sellier,,49.008312225,2.3982739449,,,1,,,0,
StopArea:59:6741481,,Les Lierres / Herivaux,,49.007369995,2.3949739933,,,1,,,0,
StopArea:59:6741463,,Eglise,,49.008090973,2.3894970417,,,1,,,0,
StopArea:59:6742402,,La Cerisaie,,49.005134583,2.3887429237,,,1,,,0,
StopArea:59:6742404,,Place de la Tolinette,,49.004089355,2.3924400806,,,1,,,0,
StopArea:59:6742406,,Jean Bullant,,49.003826141,2.3964860439,,,1,,,0,
StopArea:88:935,,Pierre Semard,,49.002819061,2.402009964,,,1,,,0,
StopArea:88:941,,Louis Perrein,,49.00164032,2.406140089,,,1,,,0,
StopArea:88:932,,Arthur Rimbaud,,48.99937439,2.4151380062,,,1,,,0,
StopArea:88:813,,Maréchal Foch,,49.000766754,2.4195311069,,,1,,,0,
StopArea:88:823,,Rue Scribe,,49.003265381,2.4203820229,,,1,,,0,
StopArea:11:50018046,,Place Gaston Tessier,,49.004295349,2.4238939285,,,1,,,0,
StopArea:11:50018029,,Place des Marronniers,,48.999141693,2.4273810387,,,1,,,0,
StopArea:88:809,,Jules Ferry,,48.996906281,2.4301359653,,,1,,,0,
StopArea:11:50017950,,Pierre Salvi,,48.991836548,2.4327390194,,,1,,,0,
StopArea:11:50109903,,Salle des Fêtes,,48.992938995,2.4434270859,,,1,,,0,
StopArea:88:805,,Hopital,,48.988765717,2.4495179653,,,1,,,0,
StopArea:88:827,,Zone Industrielle  Arsonval,,48.991004944,2.4566719532,,,1,,,0,
StopArea:11:50017976,,Cressonnières,,48.988613129,2.45875597,,,1,,,0,
StopArea:88:817,,Patte d'Oie,,48.983493805,2.4685540199,,,1,,,0,
StopArea:11:50018021,,Les Mines,,48.984867096,2.4732780457,,,1,,,0,
StopArea:88:900,,Eglise,,48.999706268,2.5120270252,,,1,,,0,
StopArea:7:10452,,Vergers,,48.998287201,2.5164151192,,,1,,,0,
StopArea:7:10446,,Orangerie,,49.002700806,2.5198340416,,,1,,,0,
StopArea:59:6741465,,Les Lierres / Louise Michel,,49.006942749,2.3925490379,,,1,,,0,
StopArea:59:6741466,,Victor Hugo,,49.006023407,2.3967890739,,,1,,,0,
StopArea:7:10641,,Marché,,48.951595306,2.6016430855,,,1,,,0,
StopArea:7:10658,,Verdun,,48.947921753,2.5998570919,,,1,,,0,
StopArea:7:10655,,St Denis,,48.947921753,2.602560997,,,1,,,0,
StopArea:7:10631,,Grillons,,48.944675446,2.6032850742,,,1,,,0,
StopArea:7:10642,,Montesquieu,,48.941120148,2.6041400433,,,1,,,0,
StopArea:53:2457,,Cèdres,,48.938884735,2.6059200764,,,1,,,0,
StopArea:53:2155,,Couronne,,48.939216614,2.6090450287,,,1,,,0,
StopArea:53:2453,,Balzac,,48.939250946,2.6122078896,,,1,,,0,
StopArea:53:2625,,Centre,,48.939319611,2.6149559021,,,1,,,0,
StopArea:7:10614,,Collège Gérard Philipe,,48.940639496,2.6227660179,,,1,,,0,
StopArea:7:10598,,Parc d'Activités de l'Ambrésis,,48.946819305,2.622428894,,,1,,,0,
StopArea:53:2293,,Piétrasanta,,48.940391541,2.6159229279,,,1,,,0,
StopArea:53:2481,,Buffon,,48.942935944,2.6134591103,,,1,,,0,
StopArea:53:2451,,Anatole France,,48.94669342,2.6095950603,,,1,,,0,
StopArea:88:649,,Laroche,,48.950378418,2.6096730232,,,1,,,0,
StopArea:7:10602,,Béarn,,48.949970245,2.6120040417,,,1,,,0,
StopArea:7:10644,,Normandie Niémen,,48.95022583,2.6148209572,,,1,,,0,
StopArea:7:10646,,Ormes,,48.952762604,2.6132740974,,,1,,,0,
StopArea:7:10657,,Tilleuls,,48.952495575,2.6152989864,,,1,,,0,
StopArea:8727151,,GARE DE VILLEPARISIS MITRY LE NEUF,,48.953315735,2.6025190353,,,1,,,0,
StopArea:53:2047,,Bosquets,,48.956359863,2.6027379036,,,1,,,0,
StopArea:7:10260,,Bibliothèque,,48.955410004,2.600399971,,,1,,,0,
StopArea:7:10307,,Lamartine,,48.956195831,2.599517107,,,1,,,0,
StopArea:7:10337,,Pasteur,,48.958560944,2.5982251167,,,1,,,0,
StopArea:7:10371,,Voltaire,,48.958950043,2.5943961143,,,1,,,0,
StopArea:7:10766,,Place Melun,,48.960338593,2.5903630257,,,1,,,0,
StopArea:7:10326,,Nantes,,48.961795807,2.5869500637,,,1,,,0,
StopArea:53:2327,,Martyrs de Chateaubriant,,48.960212708,2.6020460129,,,1,,,0,
StopArea:8727152,,GARE DE MITRY CLAYE,,48.975822449,2.643075943,,,1,,,0,
StopArea:7:10367,,Van Gogh,,48.97296524,2.646034956,,,1,,,0,
StopArea:7:10350,,Pont,,48.974067688,2.641201973,,,1,,,0,
StopArea:53:2597,,Cheminots,,48.974689484,2.6385540962,,,1,,,0,
StopArea:53:2345,,Môquet,,48.97549057,2.6326060295,,,1,,,0,
StopArea:53:2091,,Carrez,,48.9778862,2.6264460087,,,1,,,0,
StopArea:53:2353,,Moulin à Vent,,48.980056763,2.6238439083,,,1,,,0,
StopArea:7:10334,,L'Orme aux Bergers,,48.983612061,2.6205871105,,,1,,,0,
StopArea:7:10353,,Prévert,,48.984634399,2.6188509464,,,1,,,0,
StopArea:7:10310,,Lemoine,,48.985454559,2.6159479618,,,1,,,0,
StopArea:53:2117,,Paul Vaillant Couturier,,48.983577728,2.6151819229,,,1,,,0,
StopArea:7:10311,,Lenfant,,48.982971191,2.6115040779,,,1,,,0,
StopArea:70:50005939,,Centre postal,,48.991138458,2.5440680981,,,1,,,0,
StopArea:53:2335,,Mairie,,48.984184265,2.6190400124,,,1,,,0,
StopArea:53:2241,,Jean Moulin,,48.982475281,2.620798111,,,1,,,0,
StopArea:53:2516,,Lilas,,48.961677551,2.6030321121,,,1,,,0,
StopArea:8727143,,GARE DE VERT GALANT,,48.945129395,2.5675261021,,,1,,,0,
StopArea:7:10712,,Parmentier,,48.947631836,2.5617229939,,,1,,,0,
StopArea:7:10721,,Poste,,48.951416016,2.558300972,,,1,,,0,
StopArea:7:10705,,Merisiers,,48.953590393,2.5626358986,,,1,,,0,
StopArea:7:10660,,Les 4 Tours,,48.957874298,2.5574901104,,,1,,,0,
StopArea:7:10723,,Place René Droulot,,48.954063416,2.556016922,,,1,,,0,
StopArea:7:10725,,La Roseraie,,48.955253601,2.5527911186,,,1,,,0,
StopArea:70:50006020,,Fontaine Mallet,,48.952285767,2.5515539646,,,1,,,0,
StopArea:70:50006035,,Jussieu,,48.9529953,2.5498850346,,,1,,,0,
StopArea:70:50006028,,Georges Sachet,,48.954410553,2.5481040478,,,1,,,0,
StopArea:7:10684,,Fougères,,48.956123352,2.5459098816,,,1,,,0,
StopArea:70:50006042,,Parc de la Noue,,48.958358765,2.5447950363,,,1,,,0,
StopArea:70:50006038,,Les Mousseaux,,48.962295532,2.5408139229,,,1,,,0,
StopArea:70:50006057,,Route de Tremblay,,48.963920593,2.5374920368,,,1,,,0,
StopArea:70:50006005,,Croix l'aumône,,48.965000153,2.5248188972,,,1,,,0,
StopArea:7:10676,,Cimetière,,48.966323853,2.5412590504,,,1,,,0,
StopArea:7:10694,,Labé,,48.967884064,2.5474181175,,,1,,,0,
StopArea:7:10696,,Laurencin,,48.966644287,2.5491979122,,,1,,,0,
StopArea:7:10727,,Schumann,,48.965507507,2.5458490849,,,1,,,0,
StopArea:7:10707,,Monnet,,48.964488983,2.5475509167,,,1,,,0,
StopArea:7:10730,,Sisley,,48.964752197,2.5501930714,,,1,,,0,
StopArea:7:10672,,Claude Nicolas Ledoux,,48.969062805,2.5458939075,,,1,,,0,
StopArea:7:10539,,Marronniers,,48.95916748,2.5788090229,,,1,,,0,
StopArea:7:10496,,Briand,,48.954910278,2.5810101032,,,1,,,0,
StopArea:88:539,,Place Jean Jaurès,,48.951595306,2.5831809044,,,1,,,0,
StopArea:88:545,,Lycée Professionnel Hélène Boucher,,48.950454712,2.5790679455,,,1,,,0,
StopArea:59:5747136,,Cité des Douaniers,,48.949790955,2.5764760971,,,1,,,0,
StopArea:7:10498,,Brossolette,,48.949729919,2.5726819038,,,1,,,0,
StopArea:7:10494,,Blum,,48.948673248,2.5697000027,,,1,,,0,
StopArea:70:50005955,,L'Odéon,,48.9425354,2.5701959133,,,1,,,0,
StopArea:70:50005948,,Flandres,,48.942218781,2.5722808838,,,1,,,0,
StopArea:70:50005971,,Place Pierre Curie,,48.94065094,2.5780758858,,,1,,,0,
StopArea:70:50005979,,Stade Jean Jaurès,,48.94109726,2.5828509331,,,1,,,0,
StopArea:7:10555,,Place A.Thomas,,48.942024231,2.5853250027,,,1,,,0,
StopArea:7:10504,,Caussimon,,48.943504333,2.5795199871,,,1,,,0,
StopArea:7:10588,,Vaillant,,48.943885803,2.5724749565,,,1,,,0,
StopArea:70:50110695,,République,,48.949996948,2.5666670799,,,1,,,0,
StopArea:70:50005959,,Maison de retraite,,48.952690125,2.5664129257,,,1,,,0,
StopArea:7:10551,,La Paix,,48.954753876,2.5653569698,,,1,,,0,
StopArea:7:10578,,Ronsard,,48.957019806,2.5632579327,,,1,,,0,
StopArea:70:50005966,,Place Henri Barbusse,,48.961681366,2.570759058,,,1,,,0,
StopArea:70:50110697,,Les Cottages,,48.966144562,2.5687820911,,,1,,,0,
StopArea:7:10528,,IUT,,48.975543976,2.559499979,,,1,,,0,
StopArea:70:50005940,,Cruppet,,48.977966309,2.5563340187,,,1,,,0,
StopArea:8798211,,Foyer des Bruyères,,48.981437683,2.5557188988,,,1,,,0,
StopArea:70:50005969,,Poste,,48.983509064,2.5539319515,,,1,,,0,
StopArea:7:10511,,Cimetière,,48.984951019,2.5529389381,,,1,,,0,
StopArea:70:50005973,,Petit Tremblay,,48.983982086,2.5504140854,,,1,,,0,
StopArea:7:10584,,Saint Pères,,48.982936859,2.5519340038,,,1,,,0,
StopArea:8727638,,GARE DE SARCELLES ST BRICE,,48.995029449,2.3682699203,,,1,,,0,
StopArea:59:4035653,,Théodore Bullier,,48.991210938,2.3736760616,,,1,,,0,
StopArea:88:1980,,SOUS PREFECTURE,,48.989143372,2.3766019344,,,1,,,0,
StopArea:59799,,LES CHOLETTES,,48.977394104,2.3713738918,,,1,,,0,
StopArea:59801,,LES FLANADES,,48.977165222,2.3776130676,,,1,,,0,
StopArea:59803,,Paul Valéry,,48.979232788,2.3793430328,,,1,,,0,
StopArea:59805,,Les Lochères,,48.978458405,2.3852579594,,,1,,,0,
StopArea:8727619,,GARE DE GARGES SARCELLES,,48.976970673,2.3907120228,,,1,,,0,
StopArea:59:3740997,,Charles de Gaulle / François Mitterrand,,48.974243164,2.3984251022,,,1,,,0,
StopArea:88:790,,Georges Brassens,,48.974559784,2.4073059559,,,1,,,0,
StopArea:88:786,,8 Mai 1945,,48.97599411,2.4093420506,,,1,,,0,
StopArea:88:792,,Jacques Decour,,48.976894379,2.413328886,,,1,,,0,
StopArea:88:794,,La Muette / Europe,,48.975231171,2.4158248901,,,1,,,0,
StopArea:88:765,,Rond Point du Christ,,48.975933075,2.4220650196,,,1,,,0,
StopArea:88:763,,Mairie Annexe,,48.979953766,2.4239079952,,,1,,,0,
StopArea:11:50017900,,Léon Blum,,48.982311249,2.4283781052,,,1,,,0,
StopArea:59:6673070,,Lycée René Cassin,,48.982830048,2.43405509,,,1,,,0,
StopArea:88:821,,Rue d'Aulnay,,48.984413147,2.4409689903,,,1,,,0,
StopArea:88:807,,Hôtel de Ville,,48.986503601,2.4500119686,,,1,,,0,
StopArea:88:797,,Cimetière / Hôpital,,48.990192413,2.4521090984,,,1,,,0,
StopArea:88:928,,Pont à l'huile,,49.00043869,2.4665141106,,,1,,,0,
StopArea:88:924,,Mairie,,49.002590179,2.4712181091,,,1,,,0,
StopArea:59:7899251,,André Citroën / Centre de Production,,48.964847565,2.4950768948,,,1,,,0,
StopArea:70:50005189,,Croix St Marc,,48.959915161,2.4980330467,,,1,,,0,
StopArea:70:50005338,,Tennis,,48.9568367,2.4950239658,,,1,,,0,
StopArea:70:50005157,,Bougainville,,48.955730438,2.4966990948,,,1,,,0,
StopArea:7:10056,,Matisse / Delacroix,,48.953937531,2.4989669323,,,1,,,0,
StopArea:88:1964,,Renoir,,48.951927185,2.490885973,,,1,,,0,
StopArea:11:50109946,,Route de Gonesse,,48.951831818,2.4857490063,,,1,,,0,
StopArea:70:50005147,,Balagny,,48.943214417,2.4819889069,,,1,,,0,
StopArea:11:50109950,,Croix Rouge,,48.947124481,2.4918949604,,,1,,,0,
StopArea:70:50005165,,Camille Desmoulins,,48.949131012,2.4941110611,,,1,,,0,
StopArea:7:10007,,Botticelli,,48.95324707,2.5025808811,,,1,,,0,
StopArea:7:10076,,Vélodrome,,48.953762054,2.5064299107,,,1,,,0,
StopArea:7:10050,,Lenglen,,48.951351166,2.5136818886,,,1,,,0,
StopArea:7:10067,,Schuman,,48.948429108,2.5173859596,,,1,,,0,
StopArea:7:10042,,Gros Saule,,48.949424744,2.5196099281,,,1,,,0,
StopArea:59:3682068,,Collège Evariste Gallois,,48.944957733,2.5193998814,,,1,,,0,
StopArea:88:7,,Avenue de Savigny,,48.944877625,2.5174899101,,,1,,,0,
StopArea:7:10001,,Ambourget Cimetière,,48.946937561,2.5116679668,,,1,,,0,
StopArea:7:10073,,St Paul,,48.947132111,2.5092639923,,,1,,,0,
StopArea:7:10044,,HLM,,48.944908142,2.5085399151,,,1,,,0,
StopArea:7:10054,,Lapin Sauté,,48.943843842,2.5071890354,,,1,,,0,
StopArea:7:10005,,Arts,,48.942085266,2.5049390793,,,1,,,0,
StopArea:88:1963,,Francisco Ferrer,,48.944633484,2.4953799248,,,1,,,0,
StopArea:70:50005331,,Soleil Levant,,48.940059662,2.5025589466,,,1,,,0,
StopArea:70:50005273,,Lycée Jean Zay,,48.939403534,2.5087149143,,,1,,,0,
StopArea:70:50005905,,La Paix,,48.93977356,2.5144660473,,,1,,,0,
StopArea:70:50005913,,Primevères,,48.940029144,2.5192620754,,,1,,,0,
StopArea:59:3682064,,Cimetière,,48.939590454,2.5243930817,,,1,,,0,
StopArea:59:3682062,,Gaston Bussière,,48.937793732,2.5296099186,,,1,,,0,
StopArea:8727142,,Gare de Sevran Livry,,48.935806274,2.5346779823,,,1,,,0,
StopArea:59:3682061,,Mère Thérèsa,,48.937526703,2.5313448906,,,1,,,0,
StopArea:7:10066,,Savigny,,48.948352814,2.5144729614,,,1,,,0,
StopArea:6:558,,Les Fresnes,,49.083568573,2.7895379066,,,1,,,0,
StopArea:6:566,,Les Ormes,,49.081775665,2.7908248901,,,1,,,0,
StopArea:6:572,,Stade,,49.077976227,2.7939479351,,,1,,,0,
StopArea:6:570,,Les Sources,,49.076431274,2.7903950214,,,1,,,0,
StopArea:6:554,,Centre commercial,,49.075138092,2.788009882,,,1,,,0,
StopArea:6:556,,Les Ecoles,,49.073059082,2.7929370403,,,1,,,0,
StopArea:6:562,,Maisonneuve,,49.071617126,2.797221899,,,1,,,0,
StopArea:6:560,,Mairie,,49.069782257,2.8014318943,,,1,,,0,
StopArea:6:574,,Rue de l'Yonne,,49.068130493,2.8043980598,,,1,,,0,
StopArea:6:564,,Moulin à Vent,,49.071105957,2.8052220345,,,1,,,0,
StopArea:6:492,,Jeannine Pernette,,49.070163727,2.8152689934,,,1,,,0,
StopArea:6:487,,Eglise,,49.070270538,2.8181049824,,,1,,,0,
StopArea:6:486,,Rue de Condé,,49.073299408,2.8205089569,,,1,,,0,
StopArea:6:489,,Gros merisier,,49.073730469,2.8246231079,,,1,,,0,
StopArea:6:490,,Hildevert,,49.070877075,2.8165309429,,,1,,,0,
StopArea:6:582,,Logis Vert,,49.042404175,2.8091518879,,,1,,,0,
StopArea:47:15015,,Eglise,,49.039802551,2.8071739674,,,1,,,0,
StopArea:6:580,,Ferme de l'Etrille,,49.037708282,2.801956892,,,1,,,0,
StopArea:6:411,,Mairie,,49.05022049,2.770804882,,,1,,,0,
StopArea:8727153,,GARE DE DAMMARTIN JUILLY ST MARD,,49.032222748,2.698718071,,,1,,,0,
StopArea:6:543,,Avenue de la Gare,,49.033912659,2.6960680485,,,1,,,0,
StopArea:6:536,,Centre,,49.035617828,2.6946249008,,,1,,,0,
StopArea:6:541,,Eglise,,49.036502838,2.6918799877,,,1,,,0,
StopArea:6:551,,ZA Fontaine des Tournelles,,49.039134979,2.685781002,,,1,,,0,
StopArea:88:372,,Rue du 26 août 1944,,49.071247101,2.8101840019,,,1,,,0,
StopArea:6:553,,Rue des Bouleaux,,49.080127716,2.7926950455,,,1,,,0,
StopArea:87:166,,Blamécourt,,49.160896301,1.8025000095,,,1,,,0,
StopArea:87:163,,A. Subtil,,49.157211304,1.7824540138,,,1,,,0,
StopArea:87:188,,Rue de Beauvais,,49.158416748,1.7929489613,,,1,,,0,
StopArea:87:183,,Gare Routière,,49.154884338,1.7905269861,,,1,,,0,
StopArea:87:212,,Wenings,,49.158332825,1.8533190489,,,1,,,0,
StopArea:84:195,,Eglise,,49.151371002,1.8864729404,,,1,,,0,
StopArea:21:838,,Place de la Mare,,49.124633789,1.8919210434,,,1,,,0,
StopArea:84:176,,Route de Commeny,,49.113025665,1.9083800316,,,1,,,0,
StopArea:21:866,,Centre Equestre,,49.111400604,1.9322780371,,,1,,,0,
StopArea:87:280,,Champmorin,,49.104248047,1.961853981,,,1,,,0,
StopArea:21:858,,Mairie,,49.101295471,1.9668420553,,,1,,,0,
StopArea:87:3,,RIVES DE LA VIOSNE,,49.093112946,1.9788880348,,,1,,,0,
StopArea:87:1,,Les Côteaux,,49.089557648,1.9876970053,,,1,,,0,
StopArea:21:842,,Montgeroult,,49.08102417,2.0050079823,,,1,,,0,
StopArea:8738115,,GARE DE BOISSY L AILLERIE,,49.075145721,2.0270609856,,,1,,,0,
StopArea:87:241,,Puiseux,,49.054824829,2.0178608894,,,1,,,0,
StopArea:8738249,,Gare de Cergy St Christophe,,49.049812317,2.0344040394,,,1,,,0,
StopArea:40:24,,Cité Artisanale,,49.044406891,2.0704200268,,,1,,,0,
StopArea:84:679,,Les Marjoberts,,49.041145325,2.0737481117,,,1,,,0,
StopArea:8738190,,Gare de Cergy Préfecture,,49.036132812,2.0807299614,,,1,,,0,
StopArea:8727613,,GARE DE PONTOISE,,49.046924591,2.0952730179,,,1,,,0,
StopArea:87:236,,CITE JUDICIAIRE,,49.051685333,2.0987360477,,,1,,,0,
StopArea:21:616,,lycee pissarro,,49.057441711,2.0911519527,,,1,,,0,
StopArea:87:231,,Hôpital,,49.062835693,2.0937070847,,,1,,,0,
StopArea:87:173,,Dame Noire,,49.151702881,1.8055269718,,,1,,,0,
StopArea:87:186,,Clos des Aulnes,,49.152423859,1.7992249727,,,1,,,0,
StopArea:87:181,,Eugène Blouin,,49.154087067,1.7928780317,,,1,,,0,
StopArea:87:172,,Rue de Crosne,,49.152263641,1.7872129679,,,1,,,0,
StopArea:87:326,,Gare,,49.159008026,1.7940050364,,,1,,,0,
StopArea:87:311,,Mairie,,49.066394806,1.7176220417,,,1,,,0,
StopArea:87:309,,Chaudry,,49.074214935,1.7181090117,,,1,,,0,
StopArea:87:303,,la Goulée,,49.073661804,1.7044039965,,,1,,,0,
StopArea:87:301,,Les 3 Tilleuls,,49.064990997,1.7045099735,,,1,,,0,
StopArea:87:126,,Lapin Savant,,49.076412201,1.6800769567,,,1,,,0,
StopArea:87:124,,Chantemesle,,49.078712463,1.6740629673,,,1,,,0,
StopArea:87:128,,Mairie de Haut Isle,,49.08310318,1.6590199471,,,1,,,0,
StopArea:87:130,,Haute Isle / les Roches Blanches,,49.084197998,1.647225976,,,1,,,0,
StopArea:87:245,,IGESA,,49.082866669,1.6340910196,,,1,,,0,
StopArea:87:247,,Mairie de la Roche Guyon,,49.081310272,1.6300560236,,,1,,,0,
StopArea:87:243,,Route de Gasny,,49.079627991,1.622609973,,,1,,,0,
StopArea:87:27,,Roconval,,49.094532013,1.6274119616,,,1,,,0,
StopArea:87:25,,Le Mal Gardé,,49.101474762,1.6332620382,,,1,,,0,
StopArea:87:23,,Eglise / Mairie,,49.106334686,1.6421060562,,,1,,,0,
StopArea:87:219,,Mairie,,49.140327454,1.720739007,,,1,,,0,
StopArea:87:43,,Place du 19 mai 1962,,49.137821198,1.6537599564,,,1,,,0,
StopArea:87:47,,Salle des Fêtes,,49.139343262,1.6616150141,,,1,,,0,
StopArea:87:45,,Pont Rû,,49.144100189,1.6708799601,,,1,,,0,
StopArea:87:98,,Copierres,,49.166610718,1.6761929989,,,1,,,0,
StopArea:87:199,,Ecole,,49.175476074,1.6774430275,,,1,,,0,
StopArea:87:267,,Bois Saint Clair,,49.200679779,1.6773329973,,,1,,,0,
StopArea:87:270,,Eglise,,49.206832886,1.6795580387,,,1,,,0,
StopArea:87:53,,Buhy Buchet / RN14,,49.195934296,1.7039300203,,,1,,,0,
StopArea:87:143,,La Chapelle,,49.183891296,1.7327460051,,,1,,,0,
StopArea:87:259,,Parc,,49.170734406,1.7638839483,,,1,,,0,
StopArea:87:257,,Mairie,,49.168632507,1.769168973,,,1,,,0,
StopArea:87:261,,Petit Scolaire,,49.163913727,1.779785037,,,1,,,0,
StopArea:87:89,,Cléry,,49.130977631,1.840430975,,,1,,,0,
StopArea:87:315,,Bord'haut de Vigny,,49.08310318,1.9305779934,,,1,,,0,
StopArea:87:169,,Beaux Sites,,49.157062531,1.7794760466,,,1,,,0,
StopArea:87:14,,Centre Hospitalier,,49.079414368,1.7598919868,,,1,,,0,
StopArea:87:5,,la Bucaille,,49.073417664,1.7714140415,,,1,,,0,
StopArea:87:7,,Cadenas,,49.070480347,1.7683479786,,,1,,,0,
StopArea:87:106,,Abri Bus,,49.056598663,1.7670650482,,,1,,,0,
StopArea:87:104,,Place,,49.060787201,1.7414480448,,,1,,,0,
StopArea:87:12,,Ferme de Brunel,,49.066192627,1.7593150139,,,1,,,0,
StopArea:87:299,,Le Tremblay,,49.078380585,1.7449179888,,,1,,,0,
StopArea:87:288,,Route de Drocourt,,49.080356598,1.738705039,,,1,,,0,
StopArea:87:297,,Villeneuve,,49.082820892,1.7359199524,,,1,,,0,
StopArea:87:290,,St Léger,,49.085769653,1.7301009893,,,1,,,0,
StopArea:87:293,,Mairie,,49.087978363,1.7254420519,,,1,,,0,
StopArea:87:313,,Les Millonets,,49.063789368,1.7160259485,,,1,,,0,
StopArea:87:307,,Rue de l'Orme,,49.063991547,1.7046589851,,,1,,,0,
StopArea:87:86,,Eglise,,49.087802887,1.6749999523,,,1,,,0,
StopArea:87:305,,Mairie de Vetheuil,,49.063053131,1.7017439604,,,1,,,0,
StopArea:87:278,,Route de Vétheuil,,49.053066254,1.6970880032,,,1,,,0,
StopArea:87:276,,Mairie,,49.040435791,1.6889410019,,,1,,,0,
StopArea:87:150,,Condorcet,,48.986351013,1.754199028,,,1,,,0,
StopArea:86:69,,Saint Maclou,,48.990871429,1.7186080217,,,1,,,0,
StopArea:81:6906,,Palais de Justice,,48.989814758,1.7128479481,,,1,,,0,
StopArea:8738150,,GARE DE MANTES LA JOLIE,,48.989009857,1.704005003,,,1,,,0,
StopArea:87:194,,Mairie de Mantes la jolie,,48.989440918,1.7146999836,,,1,,,0,
StopArea:81:6940,,Rue de la Sangle,,48.989318848,1.7185280323,,,1,,,0,
StopArea:87:88,,L.E.P,,49.1577034,1.9434429407,,,1,,,0,
StopArea:84:121,,Centre Ville,,49.160461426,1.9344990253,,,1,,,0,
StopArea:87:141,,Grande Rue,,49.152740479,1.8854540586,,,1,,,0,
StopArea:87:210,,Rue d'Hardeville,,49.159126282,1.8542300463,,,1,,,0,
StopArea:87:206,,Rue du Bois de Chars,,49.16254425,1.8586850166,,,1,,,0,
StopArea:87:214,,Hardeville,,49.16375351,1.8608180285,,,1,,,0,
StopArea:87:41,,Bouconvillers,,49.176044464,1.9028329849,,,1,,,0,
StopArea:87:148,,Lierville,,49.190288544,1.8810529709,,,1,,,0,
StopArea:87:122,,Hadancourt,,49.186759949,1.8538819551,,,1,,,0,
StopArea:87:249,,Serans,,49.185779572,1.8356330395,,,1,,,0,
StopArea:87:140,,Ecole,,49.154251099,1.8839060068,,,1,,,0,
StopArea:87:168,,Bois Pierre,,49.150672913,1.8107769489,,,1,,,0,
StopArea:87:208,,Zone d'activités,,49.15397644,1.8550180197,,,1,,,0,
StopArea:8738265,,Gare de Cergy le Haut,,49.047580719,2.0106170177,,,1,,,0,
StopArea:40:191,,La Ravinière,,49.05626297,2.0653250217,,,1,,,0,
StopArea:87:223,,LYCEE POLE EMILE VICTOR,,49.072883606,2.0708780289,,,1,,,0,
StopArea:87:84,,Foyer Rural,,49.089370728,1.6768610477,,,1,,,0,
StopArea:87:82,,Villarceaux,,49.115474701,1.7111530304,,,1,,,0,
StopArea:87:78,,Eglise,,49.121715546,1.6945530176,,,1,,,0,
StopArea:87:80,,Salle des Fêtes,,49.123340607,1.6903159618,,,1,,,0,
StopArea:87:295,,Place,,49.090042114,1.7255810499,,,1,,,0,
StopArea:87:74,,Haute Souris,,49.102306366,1.715644002,,,1,,,0,
StopArea:87:17,,Eglise,,49.150871277,1.6973810196,,,1,,,0,
StopArea:87:19,,Toussaint,,49.153625488,1.7053200006,,,1,,,0,
StopArea:87:221,,le Mesnil,,49.159511566,1.7102409601,,,1,,,0,
StopArea:87:253,,Ducourt,,49.168334961,1.7363820076,,,1,,,0,
StopArea:87:175,,Demi Lune,,49.147563934,1.786700964,,,1,,,0,
StopArea:87:255,,Etrez,,49.163375854,1.7835110426,,,1,,,0,
StopArea:87:21,,Le Vaumion,,49.160533905,1.7070300579,,,1,,,0,
StopArea:87:319,,Enfer / Centre,,49.087013245,1.8085260391,,,1,,,0,
StopArea:87:107,,Relais du Nord,,49.055042267,1.7668499947,,,1,,,0,
StopArea:87:9,,Centre,,49.072818756,1.7726169825,,,1,,,0,
StopArea:23:10,,Eglise,,49.071834564,1.7763890028,,,1,,,0,
StopArea:87:31,,La Feuge,,49.089035034,1.7913479805,,,1,,,0,
StopArea:87:29,,Centre,,49.094848633,1.7898700237,,,1,,,0,
StopArea:87:152,,Eglise,,49.099681854,1.7757309675,,,1,,,0,
StopArea:87:114,,Eglise,,49.124744415,1.7517670393,,,1,,,0,
StopArea:87:112,,Ecole,,49.12802887,1.7558009624,,,1,,,0,
StopArea:87:133,,Orée du Bois,,49.141471863,1.766415,,,1,,,0,
StopArea:87:135,,Route Blanche,,49.145824432,1.7677630186,,,1,,,0,
StopArea:81:15821,,Eglise St Etienne,,48.973548889,1.7126959562,,,1,,,0,
StopArea:86:121,,Ravine,,48.975597382,1.7118560076,,,1,,,0,
StopArea:86:122,,Valmonts,,48.975078583,1.7089539766,,,1,,,0,
StopArea:86:123,,Jean Moulin,,48.975143433,1.7036160231,,,1,,,0,
StopArea:86:129,,Belles Lances,,48.976047516,1.6996109486,,,1,,,0,
StopArea:86:128,,Mantes-la-Ville - Chemin de Dreux,,48.97826767,1.6995480061,,,1,,,0,
StopArea:86:127,,Brouets,,48.981994629,1.6963640451,,,1,,,0,
StopArea:86:126,,Rouen,,48.983177185,1.6946079731,,,1,,,0,
StopArea:86:125,,Place du Commerce,,48.984466553,1.6959580183,,,1,,,0,
StopArea:8738159,,GARE DE MANTES STATION,,48.983219147,1.7158139944,,,1,,,0,
StopArea:86:149,,Coteau,,48.983665466,1.7223609686,,,1,,,0,
StopArea:86:150,,St Bonaventure,,48.985057831,1.7216340303,,,1,,,0,
StopArea:86:151,,Porte aux Saints,,48.986625671,1.7176690102,,,1,,,0,
StopArea:81:15792,,Ste Anne,,49.001430511,1.6975950003,,,1,,,0,
StopArea:86:152,,Clos Pasteur,,48.997753143,1.7018300295,,,1,,,0,
StopArea:86:153,,Cité des Clos,,48.996032715,1.7040899992,,,1,,,0,
StopArea:86:154,,Toutain,,48.994579315,1.7059719563,,,1,,,0,
StopArea:86:155,,Denfert-Rochereau,,48.992340088,1.7088060379,,,1,,,0,
StopArea:86:45,,Maréchal Juin,,48.990776062,1.7087980509,,,1,,,0,
StopArea:86:50,,Normandie,,48.988857269,1.7116069794,,,1,,,0,
StopArea:86:66,,Duhamel,,48.986278534,1.7162530422,,,1,,,0,
StopArea:86:51,,Victor Hugo,,48.984752655,1.7168040276,,,1,,,0,
StopArea:22:179,,Mairie,,48.978427887,1.7141070366,,,1,,,0,
StopArea:81:7044,,Poste,,48.981349945,1.7113560438,,,1,,,0,
StopArea:86:157,,Valogne,,48.985198975,1.7049540281,,,1,,,0,
StopArea:86:158,,Meuniers,,48.983737946,1.6999950409,,,1,,,0,
StopArea:86:371,,Europe,,48.979385376,1.6945389509,,,1,,,0,
StopArea:86:408,,Porte de Normandie,,48.978656769,1.6863839626,,,1,,,0,
StopArea:86:83,,Beynes,,48.978649139,1.6894630194,,,1,,,0,
StopArea:81:15786,,Résidence du Lac,,48.999427795,1.7024509907,,,1,,,0,
StopArea:8741588,,GARE DE ROSNY SUR SEINE,,48.997077942,1.6304930449,,,1,,,0,
StopArea:86:278,,Pont Chapart (Provisoir),,48.994873047,1.6343719959,,,1,,,0,
StopArea:81:15944,,Croix Brisée,,48.992935181,1.6405570507,,,1,,,0,
StopArea:86:307,,Les Marceaux,,48.990642548,1.6534450054,,,1,,,0,
StopArea:86:306,,Gustave Eiffel,,48.994506836,1.6525950432,,,1,,,0,
StopArea:81:15946,,Bois Moulin,,48.998233795,1.6466759443,,,1,,,0,
StopArea:81:15780,,Hôpital François Quesnay,,48.999313354,1.6772309542,,,1,,,0,
StopArea:86:109,,Nungesser,,49.001487732,1.6778130531,,,1,,,0,
StopArea:81:6845,,Doret,,49.001079559,1.6839100122,,,1,,,0,
StopArea:86:399,,Schwob,,49.000961304,1.6871279478,,,1,,,0,
StopArea:86:29,,Patinoire,,48.997802734,1.6881170273,,,1,,,0,
StopArea:81:6864,,Géo André,,48.995368958,1.691898942,,,1,,,0,
StopArea:81:6847,,Edouard Vaillant,,48.99414444,1.695258975,,,1,,,0,
StopArea:86:42,,Paul Bert,,48.993793488,1.6977610588,,,1,,,0,
StopArea:81:15788,,Division Leclerc,,48.989242554,1.7099410295,,,1,,,0,
StopArea:81:6878,,Mairie,,48.989295959,1.7152290344,,,1,,,0,
StopArea:23:270,,Pont de Limay,,48.993625641,1.7267580032,,,1,,,0,
StopArea:81:6590,,Chaponnerie,,48.995105743,1.731003046,,,1,,,0,
StopArea:81:15499,,Monument,,48.99603653,1.7338700294,,,1,,,0,
StopArea:81:6592,,Paix,,48.995040894,1.7373609543,,,1,,,0,
StopArea:81:15510,,George Sand,,48.994754791,1.7397270203,,,1,,,0,
StopArea:86:400,,Limay - Jean Macé,,48.996002197,1.7410130501,,,1,,,0,
StopArea:86:401,,Limay - Fontaines Agnès,,48.997955322,1.7418990135,,,1,,,0,
StopArea:23:256,,Croms,,48.999469757,1.7419409752,,,1,,,0,
StopArea:81:15905,,Aristide Briand,,49.000099182,1.7407710552,,,1,,,0,
StopArea:23:258,,Hauts de Limay,,49.004512787,1.7380599976,,,1,,,0,
StopArea:23:260,,Fosses Rouges,,49.005897522,1.7335129976,,,1,,,0,
StopArea:23:252,,Bois aux Moines,,49.005207062,1.7325060368,,,1,,,0,
StopArea:23:255,,Hauts Célestins,,49.00365448,1.7343579531,,,1,,,0,
StopArea:86:77,,Franklin Roosevelt,,48.990116119,1.709856987,,,1,,,0,
StopArea:81:15790,,Route de Buchelay,,48.995895386,1.6877260208,,,1,,,0,
StopArea:81:6888,,Lavoisier,,48.996143341,1.684442997,,,1,,,0,
StopArea:81:15761,,Général de Gaulle,,48.996528625,1.6797540188,,,1,,,0,
StopArea:81:15763,,Aqualude,,49.004009247,1.6788049936,,,1,,,0,
StopArea:81:15768,,Fragonard,,49.003921509,1.6825549603,,,1,,,0,
StopArea:86:110,,Godeau,,49.003547668,1.6843910217,,,1,,,0,
StopArea:86:405,,Charcot,,49.003238678,1.6877269745,,,1,,,0,
StopArea:81:15774,,Les Garennes,,49.002765656,1.692227006,,,1,,,0,
StopArea:86:25,,Clinique,,49.004577637,1.6945810318,,,1,,,0,
StopArea:86:24,,Port Fouquet,,49.004116058,1.6968950033,,,1,,,0,
StopArea:86:112,,Plaisances,,48.975940704,1.7031760216,,,1,,,0,
StopArea:86:58,,Tours Merisiers,,48.97776413,1.7023689747,,,1,,,0,
StopArea:86:409,,Pincevins,,48.97883606,1.6949620247,,,1,,,0,
StopArea:86:102,,Chemin de Fontenay,,48.978939056,1.6800249815,,,1,,,0,
StopArea:81:15871,,Aureines,,48.979438782,1.6767040491,,,1,,,0,
StopArea:81:15869,,Mairie,,48.980201721,1.6723690033,,,1,,,0,
StopArea:81:15712,,Gamelines,,48.990493774,1.677382946,,,1,,,0,
StopArea:81:15867,,Champs Odés,,48.993160248,1.6755310297,,,1,,,0,
StopArea:86:114,,Braunstein,,48.997356415,1.7064299583,,,1,,,0,
StopArea:81:15794,,Marcel Tabu,,48.997005463,1.7087019682,,,1,,,0,
StopArea:86:116,,IUT Intermarché,,48.99703598,1.7106610537,,,1,,,0,
StopArea:86:117,,Castor,,48.994651794,1.7141929865,,,1,,,0,
StopArea:86:118,,Henri Clérisse,,48.99249649,1.7173600197,,,1,,,0,
StopArea:81:15935,,Carnot,,48.987224579,1.7086629868,,,1,,,0,
StopArea:50:151,,Domaine de la Vallée,,48.9724617,1.7166650295,,,1,,,0,
StopArea:86:212,,Hauts Villiers,,48.973796844,1.71963799,,,1,,,0,
StopArea:86:213,,Bièvre,,48.972747803,1.7208729982,,,1,,,0,
StopArea:86:214,,Cernay,,48.970794678,1.720780015,,,1,,,0,
StopArea:86:215,,Rosay,,48.968799591,1.7215000391,,,1,,,0,
StopArea:86:216,,Touques,,48.966514587,1.7214859724,,,1,,,0,
StopArea:86:217,,Varennes,,48.964485168,1.7198859453,,,1,,,0,
StopArea:86:218,,Odet,,48.964164734,1.7184840441,,,1,,,0,
StopArea:86:240,,Institut Médico-Educatif L'Envol,,48.955116272,1.716940999,,,1,,,0,
StopArea:86:222,,Lyre,,48.96321106,1.7131860256,,,1,,,0,
StopArea:86:223,,Chenonceaux,,48.965950012,1.7131259441,,,1,,,0,
StopArea:86:224,,Centre Commercial,,48.969665527,1.7167799473,,,1,,,0,
StopArea:50:153,,Mateau,,48.974906921,1.7176840305,,,1,,,0,
StopArea:86:220,,Louise Michel,,48.985580444,1.7076050043,,,1,,,0,
StopArea:86:225,,Université,,48.988456726,1.6974170208,,,1,,,0,
StopArea:86:226,,Chemin des Meuniers,,48.98859787,1.6878019571,,,1,,,0,
StopArea:86:227,,Innovaparc,,48.986896515,1.6813169718,,,1,,,0,
StopArea:86:315,,Quai de la Tour,,48.994300842,1.7175639868,,,1,,,0,
StopArea:81:15749,,Boulevard des Cygnes,,48.996795654,1.7145730257,,,1,,,0,
StopArea:86:394,,Liberté,,48.996162415,1.7029889822,,,1,,,0,
StopArea:86:393,,Emile Zola,,48.99363327,1.7008149624,,,1,,,0,
StopArea:86:319,,Béarn,,48.989421844,1.6646449566,,,1,,,0,
StopArea:86:320,,Durance,,48.990497589,1.6710089445,,,1,,,0,
StopArea:86:321,,Verdon,,48.98991394,1.6748470068,,,1,,,0,
StopArea:86:322,,Garonne,,48.988578796,1.6760179996,,,1,,,0,
StopArea:86:323,,Rond Point,,48.9880867,1.6770960093,,,1,,,0,
StopArea:86:324,,Lot,,48.989097595,1.679090023,,,1,,,0,
StopArea:86:326,,Closeaux,,48.992511749,1.6813000441,,,1,,,0,
StopArea:86:327,,Piquettes,,48.991760254,1.6859660149,,,1,,,0,
StopArea:86:138,,Graviers / Brosses,,48.972740173,1.6923079491,,,1,,,0,
StopArea:86:137,,Bel Air,,48.970462799,1.6902890205,,,1,,,0,
StopArea:86:136,,Marronniers,,48.969669342,1.686578989,,,1,,,0,
StopArea:81:6738,,Mairie,,48.966739655,1.6809790134,,,1,,,0,
StopArea:86:169,,Mare Pasloue,,48.966751099,1.6838380098,,,1,,,0,
StopArea:86:170,,Roussières,,48.966056824,1.6890809536,,,1,,,0,
StopArea:86:171,,Anjou,,48.965988159,1.6913889647,,,1,,,0,
StopArea:86:172,,Touraine,,48.966873169,1.6939920187,,,1,,,0,
StopArea:86:173,,Thymerais,,48.968254089,1.6934560537,,,1,,,0,
StopArea:86:174,,Lorraine,,48.969741821,1.693887949,,,1,,,0,
StopArea:86:175,,Penthièvre,,48.970272064,1.6957310438,,,1,,,0,
StopArea:86:176,,Merles,,48.971950531,1.6978869438,,,1,,,0,
StopArea:86:139,,Graviers / Mongazons,,48.97454071,1.694947958,,,1,,,0,
StopArea:86:140,,Pierrettes,,48.976238251,1.6958479881,,,1,,,0,
StopArea:86:177,,Bates,,48.980503082,1.7048879862,,,1,,,0,
StopArea:81:14825,,Sacré Coeur,,48.98380661,1.7078310251,,,1,,,0,
StopArea:81:6744,,Mongazons,,48.974990845,1.6924489737,,,1,,,0,
StopArea:81:15736,,Cytises,,48.971286774,1.6826540232,,,1,,,0,
StopArea:81:15738,,Ormes,,48.974681854,1.6824480295,,,1,,,0,
StopArea:81:15739,,Tilleuls,,48.977100372,1.6854310036,,,1,,,0,
StopArea:86:413,,Fontenay,,48.97820282,1.6859049797,,,1,,,0,
StopArea:86:182,,René Renault,,48.981323242,1.6648459435,,,1,,,0,
StopArea:86:183,,Pasteur,,48.97958374,1.6714429855,,,1,,,0,
StopArea:81:15737,,Fontenay / Auchan,,48.978504181,1.6861009598,,,1,,,0,
StopArea:81:15727,,Mairie,,48.974697113,1.6489349604,,,1,,,0,
StopArea:86:204,,Val Saint Georges,,48.982017517,1.6974760294,,,1,,,0,
StopArea:81:6644,,Place du Temple,,48.992809296,1.729598999,,,1,,,0,
StopArea:86:381,,Hotel de Ville,,48.991226196,1.7364799976,,,1,,,0,
StopArea:81:6638,,Logirep,,48.991085052,1.7411040068,,,1,,,0,
StopArea:81:6659,,Rue de la Chasse,,48.992694855,1.7424099445,,,1,,,0,
StopArea:23:250,,Basses Meunières,,48.992950439,1.7433450222,,,1,,,0,
StopArea:23:264,,Centre Commercial,,48.99105072,1.7551859617,,,1,,,0,
StopArea:81:15461,,Forest,,48.98878479,1.7613159418,,,1,,,0,
StopArea:81:15211,,ALPA,,48.985290527,1.7592829466,,,1,,,0,
StopArea:81:15220,,Lycée Condorcet,,48.985927582,1.7553189993,,,1,,,0,
StopArea:86:382,,Place du Marché,,48.994792938,1.732812047,,,1,,,0,
StopArea:86:206,,Vallée,,48.975986481,1.6459729671,,,1,,,0,
StopArea:84:244,,Jouy le Comte Eglise Scolaire,,49.127487183,2.2071840763,,,1,,,0,
StopArea:84:243,,Le Verger,,49.122875214,2.2116320133,,,1,,,0,
StopArea:8727652,,GARE DE L'ISLE ADAM PARMAIN,,49.114536285,2.2096030712,,,1,,,0,
StopArea:84:241,,Arcades,,49.105751038,2.2047410011,,,1,,,0,
StopArea:84:240,,Couture,,49.10036087,2.202614069,,,1,,,0,
StopArea:84:239,,Collège Roland Vasseur,,49.096595764,2.20144701,,,1,,,0,
StopArea:8727653,,GARE DE VALMONDOIS,,49.091850281,2.2027690411,,,1,,,0,
StopArea:84:255,,Rue Massenet,,49.088737488,2.2020900249,,,1,,,0,
StopArea:84:283,,Mairie,,49.085506439,2.1978030205,,,1,,,0,
StopArea:84:495,,Chemin Roger,,49.084289551,2.1973130703,,,1,,,0,
StopArea:84:235,,Pasteur,,49.079616547,2.19480896,,,1,,,0,
StopArea:84:216,,Cordeville,,49.073764801,2.1846768856,,,1,,,0,
StopArea:8727654,,GARE D'AUVERS SUR OISE,,49.070674896,2.1746220589,,,1,,,0,
StopArea:84:212,,AUVERS sur OISE - Les Côteaux,,49.075389862,2.1623020172,,,1,,,0,
StopArea:84:213,,AUVERS sur OISE Gendarmerie,,49.074867249,2.1626179218,,,1,,,0,
StopArea:84:214,,AUVERS sur OISE - Château,,49.071205139,2.1656529903,,,1,,,0,
StopArea:84:211,,AUVERS sur OISE - Clos du Château,,49.070808411,2.1673638821,,,1,,,0,
StopArea:84:210,,AUVERS sur OISE - Boggio,,49.06993866,2.1597630978,,,1,,,0,
StopArea:84:209,,AUVERS sur OISE - Rue Rémy,,49.071380615,2.1534659863,,,1,,,0,
StopArea:84:208,,AUVERS sur OISE - Rue du Four,,49.070770264,2.1484560966,,,1,,,0,
StopArea:84:207,,AUVERS sur OISE - Halte de Chaponval,,49.069793701,2.1433169842,,,1,,,0,
StopArea:84:206,,AUVERS sur OISE - Chapelle St Nicolas,,49.068576813,2.1340839863,,,1,,,0,
StopArea:84:205,,AUVERS sur OISE - Valhermeil,,49.065906525,2.1274280548,,,1,,,0,
StopArea:84:204,,PONTOISE - Chemin du Général,,49.063308716,2.1231510639,,,1,,,0,
StopArea:84:203,,PONTOISE - Chemin des Gares,,49.060661316,2.1191489697,,,1,,,0,
StopArea:84:202,,PONTOISE - Le Chou,,49.058738708,2.116961956,,,1,,,0,
StopArea:84:201,,PONTOISE - Le Ruisseau,,49.055644989,2.1139130592,,,1,,,0,
StopArea:84:200,,PONTOISE - Le Pothuis,,49.050552368,2.1047821045,,,1,,,0,
StopArea:84:85,,PONTOISE - Hôtel Dieu,,49.047607422,2.1000928879,,,1,,,0,
StopArea:84:489,,PONTOISE - Rue du Premier Dragon,,49.042461395,2.0903770924,,,1,,,0,
StopArea:84:133,,Lycée Kastler,,49.035812378,2.0859210491,,,1,,,0,
StopArea:84:101,,Lavoir,,49.180671692,2.1052160263,,,1,,,0,
StopArea:84:120,,Margicourt,,49.178459167,2.1083130836,,,1,,,0,
StopArea:84:22,,Place du Carrouge,,49.180698395,2.1144349575,,,1,,,0,
StopArea:84:7,,Place du Village,,49.150562286,2.1104059219,,,1,,,0,
StopArea:84:108,,Rue de Pontoise,,49.137653351,2.1130170822,,,1,,,0,
StopArea:84:468,,Zone d'Activités,,49.099319458,2.1357278824,,,1,,,0,
StopArea:84:109,,Château (Scolaire),,49.101829529,2.132338047,,,1,,,0,
StopArea:84:110,,Mairie,,49.095302582,2.0951659679,,,1,,,0,
StopArea:84:78,,Rue des Fossettes,,49.087902069,2.0682630539,,,1,,,0,
StopArea:84:467,,Lycée Paul Emile Victor,,49.072872162,2.0708510876,,,1,,,0,
StopArea:40:432,,Oseraie,,49.077102661,2.0758850574,,,1,,,0,
StopArea:40:433,,Demi Lieue,,49.071559906,2.0812969208,,,1,,,0,
StopArea:84:81,,Louvrais,,49.059829712,2.0855760574,,,1,,,0,
StopArea:84:82,,Lycée Pissarro,,49.057575226,2.0910220146,,,1,,,0,
StopArea:84:83,,Citadelle,,49.052906036,2.0950369835,,,1,,,0,
StopArea:40:501,,Cité Judiciaire,,49.05165863,2.0988841057,,,1,,,0,
StopArea:84:102,,Messelan,,49.161907196,2.140182972,,,1,,,0,
StopArea:84:103,,Grande Rue,,49.1497612,2.1498448849,,,1,,,0,
StopArea:84:104,,Mairie,,49.147949219,2.1502530575,,,1,,,0,
StopArea:84:105,,Biard,,49.141349792,2.1488890648,,,1,,,0,
StopArea:84:106,,Petit Biard,,49.140068054,2.1459980011,,,1,,,0,
StopArea:84:107,,Mairie,,49.135604858,2.1439330578,,,1,,,0,
StopArea:84:150,,Plateau,,49.077846527,2.1070249081,,,1,,,0,
StopArea:84:151,,Pharmacie,,49.074752808,2.1048851013,,,1,,,0,
StopArea:84:152,,Croix d'Autel,,49.072498322,2.101804018,,,1,,,0,
StopArea:84:153,,Zone Artisanale,,49.066257477,2.1086978912,,,1,,,0,
StopArea:84:154,,Transformateur,,49.065200806,2.1112730503,,,1,,,0,
StopArea:84:155,,Bois Péan,,49.067119598,2.1126320362,,,1,,,0,
StopArea:84:156,,Bécasse,,49.069252014,2.1151258945,,,1,,,0,
StopArea:84:157,,Stand de Tir,,49.065059662,2.1053390503,,,1,,,0,
StopArea:84:158,,Maternité,,49.061161041,2.0938289165,,,1,,,0,
StopArea:40:160,,Avenue de Normandie,,49.061637878,2.0901620388,,,1,,,0,
StopArea:84:122,,LEP,,49.15769577,1.9434020519,,,1,,,0,
StopArea:84:144,,Métairie,,49.149021149,1.9689519405,,,1,,,0,
StopArea:84:499,,Hopital Jean Baptiste Cartry,,49.146652222,1.9749549627,,,1,,,0,
StopArea:84:126,,Gendarmerie,,49.14573288,1.977897048,,,1,,,0,
StopArea:84:13,,Collège Les Hautiers,,49.148658752,1.985188961,,,1,,,0,
StopArea:84:53,,Dubois Danger,,49.145778656,1.98427701,,,1,,,0,
StopArea:84:52,,Place Peyron,,49.142951965,1.980733037,,,1,,,0,
StopArea:84:51,,Route d'Us,,49.139087677,1.9850939512,,,1,,,0,
StopArea:84:67,,Artimont / D915,,49.126174927,1.9995520115,,,1,,,0,
StopArea:84:127,,Rue des Petites Fontaines,,49.123504639,2.0006439686,,,1,,,0,
StopArea:84:518,,Eglise,,49.119762421,2.0010890961,,,1,,,0,
StopArea:84:66,,Route De Frémécourt,,49.119831085,2.0122900009,,,1,,,0,
StopArea:84:128,,Eglise,,49.116725922,2.0170600414,,,1,,,0,
StopArea:84:129,,Rue Curie,,49.114452362,2.0238699913,,,1,,,0,
StopArea:84:130,,Karting / Aérodrome,,49.101554871,2.0420329571,,,1,,,0,
StopArea:40:386,,Mairie,,49.06344223,2.1864440441,,,1,,,0,
StopArea:8727666,,GARE DE MERY SUR OISE,,49.057563782,2.1906700134,,,1,,,0,
StopArea:84:516,,Méry ZA,,49.056510925,2.1730649471,,,1,,,0,
StopArea:40:382,,Bonneville,,49.058883667,2.1635220051,,,1,,,0,
StopArea:84:485,,Vaux,,49.058006287,2.1586410999,,,1,,,0,
StopArea:84:294,,Gros Chevaux,,49.053985596,2.1407039165,,,1,,,0,
StopArea:40:426,,Antoine Balard,,49.052791595,2.1368629932,,,1,,,0,
StopArea:40:412,,Vert Galant,,49.051395416,2.1329278946,,,1,,,0,
StopArea:40:464,,Les Béthunes,,49.046508789,2.1363120079,,,1,,,0,
StopArea:40:465,,Equerre,,49.043457031,2.1344389915,,,1,,,0,
StopArea:84:267,,Bois Thibault,,49.094024658,2.1935579777,,,1,,,0,
StopArea:84:266,,Mairie,,49.096424103,2.1899869442,,,1,,,0,
StopArea:84:265,,La Naze,,49.101047516,2.1827690601,,,1,,,0,
StopArea:84:264,,Rue Léon Bernard/Rue Duhamel,,49.106060028,2.1808650494,,,1,,,0,
StopArea:84:263,,Verville / Le Cottage,,49.111312866,2.1759700775,,,1,,,0,
StopArea:84:262,,Verville / La Halte,,49.114341736,2.1766450405,,,1,,,0,
StopArea:84:261,,Centre Equestre,,49.125526428,2.1808950901,,,1,,,0,
StopArea:84:260,,Mairie,,49.128139496,2.1712760925,,,1,,,0,
StopArea:84:259,,La Garenne,,49.132419586,2.1708440781,,,1,,,0,
StopArea:84:256,,Chennevières,,49.156131744,2.1694250107,,,1,,,0,
StopArea:84:257,,Mairie,,49.15430069,2.1711161137,,,1,,,0,
StopArea:84:258,,Eglise,,49.152015686,2.1682879925,,,1,,,0,
StopArea:84:25,,Lavoir,,49.193264008,2.061508894,,,1,,,0,
StopArea:84:26,,Abri des Vignes,,49.190265656,2.071532011,,,1,,,0,
StopArea:84:27,,Chemin de la Mare,,49.173557281,2.0539820194,,,1,,,0,
StopArea:84:500,,Mairie,,49.173534393,2.0465269089,,,1,,,0,
StopArea:84:32,,Rayon,,49.172767639,2.0410358906,,,1,,,0,
StopArea:84:501,,Petite Saussette,,49.171279907,2.039345026,,,1,,,0,
StopArea:84:33,,Saussette,,49.1692276,2.0382750034,,,1,,,0,
StopArea:84:34,,Le Ruel,,49.170715332,2.0256040096,,,1,,,0,
StopArea:84:29,,Les Tuileries,,49.177707672,2.0269188881,,,1,,,0,
StopArea:84:30,,Connebot,,49.180389404,2.0287389755,,,1,,,0,
StopArea:84:31,,Le Quoniam,,49.180397034,2.0384840965,,,1,,,0,
StopArea:84:11,,Le Fay,,49.158634186,2.0435760021,,,1,,,0,
StopArea:84:100,,Le Rosnel,,49.152992249,2.0101540089,,,1,,,0,
StopArea:84:50,,Eglise,,49.14251709,2.0217208862,,,1,,,0,
StopArea:84:49,,Soleil Levant,,49.13286972,2.0489199162,,,1,,,0,
StopArea:84:48,,Stade,,49.130458832,2.0532319546,,,1,,,0,
StopArea:84:47,,Mairie,,49.124137878,2.0652470589,,,1,,,0,
StopArea:84:46,,Eglise,,49.122173309,2.0629570484,,,1,,,0,
StopArea:84:45,,La Tuilerie,,49.120353699,2.0528020859,,,1,,,0,
StopArea:84:76,,GEROCOURT Centre,,49.102905273,2.0564498901,,,1,,,0,
StopArea:84:77,,Gérocourt  Chapelle,,49.101654053,2.0566749573,,,1,,,0,
StopArea:83:623,,Chambourcy Renaissance,,48.912281036,2.0355250835,,,1,,,0,
StopArea:83:610,,BONNIERES,,49.03188324,1.5797849894,,,1,,,0,
StopArea:59685,,Aéroport CDG Terminal 1,,49.014377594,2.5418899059,,,1,,,0,
StopArea:8700147,,Aéroport CDG 2 TGV,,49.00415802,2.5706129074,,,1,,,0,
StopArea:82:10,,Hotel Newport bay Club,,48.865074158,2.7886059284,,,1,,,0,
StopArea:82:11,,Hôtel  Séquoia Lodge,,48.869018555,2.7911880016,,,1,,,0,
StopArea:47:15034,,Hôtel Santa Fe,,48.871124268,2.7952389717,,,1,,,0,
StopArea:82:13,,Hôtel Cheyenne,,48.874412537,2.7912080288,,,1,,,0,
StopArea:82:14,,Hôtel New York,,48.870708466,2.7873599529,,,1,,,0,
StopArea:8775499,,Gare de Marne-La-Vallée Chessy,,48.870128632,2.7838320732,,,1,,,0,
StopArea:82:15,,Hôtel Disneyland,,48.870952606,2.7812449932,,,1,,,0,
StopArea:82:21,,Hotel B and B,,48.877372742,2.8090150356,,,1,,,0,
StopArea:82:20,,Hotel My Explorer's,,48.87670517,2.806978941,,,1,,,0,
StopArea:82:19,,Hôtel Dream Castle,,48.874767303,2.8062119484,,,1,,,0,
StopArea:82:18,,Hôtel Magic Circus,,48.871543884,2.807694912,,,1,,,0,
StopArea:82:17,,Hôtel Kyriad,,48.870685577,2.8091859818,,,1,,,0,
StopArea:23:274,,Pôle Lafarge,,48.988895416,1.7475999594,,,1,,,0,
StopArea:23:965,,Foyer,,48.976585388,1.7638989687,,,1,,,0,
StopArea:23:482,,Centrale,,48.974411011,1.7698169947,,,1,,,0,
StopArea:23:484,,Mairie,,48.972305298,1.7769629955,,,1,,,0,
StopArea:81:7550,,Petite Auberge,,48.97259903,1.7798810005,,,1,,,0,
StopArea:23:486,,Cité tibaldi,,48.973918915,1.7808020115,,,1,,,0,
StopArea:81:7536,,Chemin Neuf,,48.975818634,1.7824469805,,,1,,,0,
StopArea:8738157,,GARE D'ISSOU PORCHEVILLE,,48.979164124,1.7851530313,,,1,,,0,
StopArea:81:6439,,Dufour,,48.981422424,1.7869399786,,,1,,,0,
StopArea:23:220,,Frileuse,,48.98400116,1.7885169983,,,1,,,0,
StopArea:81:6460,,Stade,,48.985630035,1.7896260023,,,1,,,0,
StopArea:81:15186,,Hautes Bovettes,,48.986415863,1.7931209803,,,1,,,0,
StopArea:23:222,,Lavoir,,48.98777771,1.7932460308,,,1,,,0,
StopArea:23:218,,Grilles du Château,,48.987857819,1.7993459702,,,1,,,0,
StopArea:8741085,,Mairie,,48.988101959,1.8123389482,,,1,,,0,
StopArea:23:208,,Moulin à vent,,48.988174438,1.8186160326,,,1,,,0,
StopArea:23:246,,3 Cornets,,48.989723206,1.840438962,,,1,,,0,
StopArea:23:242,,La Carpe qui tête,,48.989917755,1.8472789526,,,1,,,0,
StopArea:81:15202,,Jean Marion,,48.99029541,1.840075016,,,1,,,0,
StopArea:8738155,,GARE DE JUZIERS,,48.992385864,1.8446120024,,,1,,,0,
StopArea:81:15207,,Les Tilleuls,,48.991821289,1.859513998,,,1,,,0,
StopArea:23:1002,,Roseland,,48.994163513,1.8682830334,,,1,,,0,
StopArea:81:7209,,La Source,,48.996147156,1.8759310246,,,1,,,0,
StopArea:81:14893,,L'Abri,,48.998279572,1.8829859495,,,1,,,0,
StopArea:23:319,,Le Beau Site,,48.999481201,1.8870350122,,,1,,,0,
StopArea:23:214,,l'Escale,,49.002101898,1.8943370581,,,1,,,0,
StopArea:21:302,,Cacao Barry,,49.004966736,1.9014730453,,,1,,,0,
StopArea:8741069,,Place du Vexin,,49.004798889,1.9067829847,,,1,,,0,
StopArea:81:6934,,Place St Maclou,,48.9908638,1.7187379599,,,1,,,0,
StopArea:81:15097,,Guyenne,,49.033939362,1.6001509428,,,1,,,0,
StopArea:81:15113,,Place Marseille,,49.034744263,1.5968719721,,,1,,,0,
StopArea:81:15085,,Aubépines,,49.035400391,1.5954140425,,,1,,,0,
StopArea:81:15116,,Les Ventines,,49.040775299,1.5968129635,,,1,,,0,
StopArea:81:15093,,Curie,,49.043964386,1.5996110439,,,1,,,0,
StopArea:81:15095,,Eglise,,49.04649353,1.6034029722,,,1,,,0,
StopArea:81:15109,,Mairie,,49.048057556,1.6004140377,,,1,,,0,
StopArea:81:15099,,Poste,,49.045379639,1.5974919796,,,1,,,0,
StopArea:81:15103,,Les Clédevilles,,49.042247772,1.5949469805,,,1,,,0,
StopArea:81:15091,,FRENEUSE Centre Commercial,,49.040538788,1.5933990479,,,1,,,0,
StopArea:81:15101,,Les Balloches,,49.04070282,1.5907039642,,,1,,,0,
StopArea:81:15107,,Les Plantines,,49.040241241,1.5873689651,,,1,,,0,
StopArea:8741589,,GARE DE BONNIERES,,49.038650513,1.5802570581,,,1,,,0,
StopArea:81:6608,,Fontaines Agnès,,48.997867584,1.7418930531,,,1,,,0,
StopArea:23:266,,Jean Macé,,48.996185303,1.7410620451,,,1,,,0,
StopArea:23:253,,Bas Caillois,,48.995105743,1.7427239418,,,1,,,0,
StopArea:81:15713,,CERGY Axe Majeur Horloge RER,,49.049728394,2.0354249477,,,1,,,0,
StopArea:81:12790,,CERGY Marjobert,,49.040077209,2.0752639771,,,1,,,0,
StopArea:23:228,,Mairie,,49.045928955,1.8539869785,,,1,,,0,
StopArea:81:6462,,Château,,49.046318054,1.8516139984,,,1,,,0,
StopArea:81:6470,,Peupliers,,49.045074463,1.8504370451,,,1,,,0,
StopArea:23:227,,Damply,,49.039131165,1.8337780237,,,1,,,0,
StopArea:81:7231,,Mairie,,49.04593277,1.8256989717,,,1,,,0,
StopArea:81:6558,,Ecole,,49.060108185,1.8139699697,,,1,,,0,
StopArea:81:6554,,Les Bonnes Joies,,49.053825378,1.8056730032,,,1,,,0,
StopArea:81:7629,,Cornouiller,,49.044071198,1.8006540537,,,1,,,0,
StopArea:81:7631,,Lavoir,,49.04013443,1.8007359505,,,1,,,0,
StopArea:81:5697,,Rue Nationale,,49.031375885,1.8191260099,,,1,,,0,
StopArea:81:7398,,Les Tilleuls,,49.030696869,1.8473399878,,,1,,,0,
StopArea:81:7400,,Mairie,,49.029079437,1.8533140421,,,1,,,0,
StopArea:81:7396,,Les Thurets,,49.028461456,1.8579380512,,,1,,,0,
StopArea:81:14049,,Gaillonnet / Soleil Levant,,49.025192261,1.8721120358,,,1,,,0,
StopArea:8738183,,GARE DE MEULAN HARDRICOURT,,49.005363464,1.9008350372,,,1,,,0,
StopArea:81:6419,,La Fourche,,49.012615204,1.9016109705,,,1,,,0,
StopArea:81:14721,,La Cavée,,49.03055191,1.8453320265,,,1,,,0,
StopArea:81:6287,,Mairie,,49.012081146,1.6372259855,,,1,,,0,
StopArea:81:15531,,Port de l'Ilon,,49.021366119,1.6391359568,,,1,,,0,
StopArea:81:7715,,Place,,49.034534454,1.6475820541,,,1,,,0,
StopArea:81:7711,,Ecole,,49.040527344,1.6886320114,,,1,,,0,
StopArea:81:6139,,Diderot,,49.017864227,1.7139610052,,,1,,,0,
StopArea:81:6141,,Lavoir,,49.020141602,1.7132300138,,,1,,,0,
StopArea:81:6133,,Carrefour St Martin,,49.01864624,1.6970779896,,,1,,,0,
StopArea:81:14815,,Ecole,,49.014312744,1.6954100132,,,1,,,0,
StopArea:81:6135,,Hôpital,,49.011833191,1.6972440481,,,1,,,0,
StopArea:81:6137,,Roy René,,49.01084137,1.7030620575,,,1,,,0,
StopArea:81:15533,,Au Navigateur,,49.008735657,1.7103010416,,,1,,,0,
StopArea:81:6636,,Les Saules Guérin,,49.004329681,1.7180989981,,,1,,,0,
StopArea:81:15974,,Halage,,48.999801636,1.7219840288,,,1,,,0,
StopArea:81:15972,,Lecoq,,48.996776581,1.7244650126,,,1,,,0,
StopArea:81:15976,,Quai aux Vins,,48.99414444,1.7258549929,,,1,,,0,
StopArea:81:15049,,Centre Social,,49.034351349,1.5844340324,,,1,,,0,
StopArea:81:15051,,Cimetière,,49.03358078,1.5808850527,,,1,,,0,
StopArea:81:15053,,Collège Marcel Pagnol,,49.030719757,1.5669050217,,,1,,,0,
StopArea:81:15069,,ZAC Mesnil Renard,,49.030651093,1.5716069937,,,1,,,0,
StopArea:81:15061,,Monument,,49.0337677,1.5751140118,,,1,,,0,
StopArea:81:15723,,Vallée des Prés,,49.03780365,1.5946550369,,,1,,,0,
StopArea:81:15111,,Paul Eluard,,49.035514832,1.5990279913,,,1,,,0,
StopArea:81:15087,,Les Belles Côtes,,49.032356262,1.6030980349,,,1,,,0,
StopArea:81:15089,,Bois Prevost,,49.028511047,1.6081609726,,,1,,,0,
StopArea:81:15329,,Mairie,,49.018432617,1.6108859777,,,1,,,0,
StopArea:81:15345,,Mairie,,49.000938416,1.6312710047,,,1,,,0,
StopArea:81:6825,,Butte Verte,,48.996868134,1.6753519773,,,1,,,0,
StopArea:81:15745,,Jardinerie,,49.036773682,1.6251430511,,,1,,,0,
StopArea:81:15312,,Route des Crêtes,,49.043899536,1.6451400518,,,1,,,0,
StopArea:81:15308,,Les Bretons,,49.046379089,1.6518399715,,,1,,,0,
StopArea:81:15297,,Base de Loisirs,,49.060455322,1.6778320074,,,1,,,0,
StopArea:81:15299,,Claude Monet,,49.063568115,1.6944279671,,,1,,,0,
StopArea:81:15303,,Les Haudières,,49.07006073,1.6788239479,,,1,,,0,
StopArea:81:15305,,Place Georges Pain,,49.072849274,1.6704859734,,,1,,,0,
StopArea:81:15295,,Côteaux de Seine,,49.074459076,1.6605700254,,,1,,,0,
StopArea:81:15301,,Le Petit Pont,,49.075611115,1.6435040236,,,1,,,0,
StopArea:81:15105,,Les Criquets,,49.051986694,1.6047600508,,,1,,,0,
StopArea:81:15877,,FRENEUSE Leclerc,,49.04756546,1.6064909697,,,1,,,0,
StopArea:81:15863,,Gouget,,49.04895401,1.6085900068,,,1,,,0,
StopArea:81:15865,,Les Marronniers,,49.050308228,1.6114560366,,,1,,,0,
StopArea:81:15336,,Vallée,,49.002864838,1.6258900166,,,1,,,0,
StopArea:81:15350,,Saint Charles,,49.000392914,1.6346590519,,,1,,,0,
StopArea:81:15338,,Stade,,48.999752045,1.6409029961,,,1,,,0,
StopArea:81:15340,,Martinets,,48.999233246,1.6468989849,,,1,,,0,
StopArea:68:19,,Gloton,,49.045860291,1.5811150074,,,1,,,0,
StopArea:68:131,,Tripleval,,49.052383423,1.5906959772,,,1,,,0,
StopArea:81:15158,,Clachaloze,,49.060214996,1.5993520021,,,1,,,0,
StopArea:68:71,,Place de Gaulle,,49.076465607,1.5925500393,,,1,,,0,
StopArea:81:15238,,Route de la Roche,,49.065544128,1.5600049496,,,1,,,0,
StopArea:81:15234,,Monument,,49.063026428,1.5534859896,,,1,,,0,
StopArea:68:97,,Eglise,,49.06105423,1.5487840176,,,1,,,0,
StopArea:68:100,,Foyer Rural,,49.059608459,1.5435379744,,,1,,,0,
StopArea:81:15236,,Place du Prieuré,,49.05688858,1.5372120142,,,1,,,0,
StopArea:68:93,,Allée d'aise,,49.04914093,1.5416549444,,,1,,,0,
StopArea:81:15037,,Bois de Merville,,49.044338226,1.5459840298,,,1,,,0,
StopArea:68:23,,Voie Jurée,,49.040569305,1.5531740189,,,1,,,0,
StopArea:68:17,,Eglise,,49.03988266,1.5665249825,,,1,,,0,
StopArea:81:15043,,Pont,,49.040393829,1.5690979958,,,1,,,0,
StopArea:81:15728,,Les Tasses,,49.024158478,1.5165790319,,,1,,,0,
StopArea:81:15071,,Centre,,49.014751434,1.4851950407,,,1,,,0,
StopArea:81:14857,,Longuemare,,48.998794556,1.4873629808,,,1,,,0,
StopArea:81:15368,,La Croix,,48.993835449,1.4891109467,,,1,,,0,
StopArea:81:15077,,Eglise,,48.991027832,1.4924960136,,,1,,,0,
StopArea:81:15240,,Chemin du Moulin,,48.994026184,1.5075579882,,,1,,,0,
StopArea:81:15242,,Eglise,,48.993469238,1.5134190321,,,1,,,0,
StopArea:68:91,,La Tuilerie,,48.994697571,1.529744029,,,1,,,0,
StopArea:81:15371,,Les Marcets,,49.007141113,1.5302629471,,,1,,,0,
StopArea:81:15366,,Route de Bonnières,,49.015861511,1.5244710445,,,1,,,0,
StopArea:81:15364,,Mairie,,49.014621735,1.5284999609,,,1,,,0,
StopArea:81:15360,,Le Cholet,,49.011707306,1.5380610228,,,1,,,0,
StopArea:81:15356,,L'Aventure,,49.010955811,1.549595952,,,1,,,0,
StopArea:81:15358,,Le Baliquet,,49.01386261,1.5516220331,,,1,,,0,
StopArea:81:15059,,Haegeman,,49.037757874,1.5869469643,,,1,,,0,
StopArea:81:15518,,Pommeraie,,49.000408173,1.7423900366,,,1,,,0,
StopArea:81:15517,,Les Essarts,,48.999298096,1.7464729548,,,1,,,0,
StopArea:81:15525,,Ampère,,48.996429443,1.7454260588,,,1,,,0,
StopArea:23:1051,,Maison des Arts,,48.989246368,1.739387989,,,1,,,0,
StopArea:81:6656,,Résidence Wilson,,48.987716675,1.7416549921,,,1,,,0,
StopArea:81:6646,,Place Robespierre,,48.985183716,1.7457870245,,,1,,,0,
StopArea:81:15901,,Wallon,,48.986270905,1.7476860285,,,1,,,0,
StopArea:81:14749,,Place Louise Henry,,48.976585388,1.5397510529,,,1,,,0,
StopArea:81:15855,,Place des Tilleuls,,48.95941925,1.5082969666,,,1,,,0,
StopArea:81:15854,,Mairie,,48.956443787,1.5078949928,,,1,,,0,
StopArea:81:15862,,Rue du Clairet,,48.94682312,1.4891370535,,,1,,,0,
StopArea:81:15833,,La Couarde,,48.928920746,1.511253953,,,1,,,0,
StopArea:81:15834,,Eglise,,48.931583405,1.5251250267,,,1,,,0,
StopArea:81:15698,,La Pharmacie,,48.943927765,1.5346189737,,,1,,,0,
StopArea:81:6695,,Eglise,,48.921730042,1.5869569778,,,1,,,0,
StopArea:81:6699,,Ruelles,,48.922603607,1.5909199715,,,1,,,0,
StopArea:81:6117,,Mairie,,48.944282532,1.6428220272,,,1,,,0,
StopArea:81:7800,,La Ferme,,48.956295013,1.6714760065,,,1,,,0,
StopArea:81:7802,,Mairie,,48.958568573,1.6757049561,,,1,,,0,
StopArea:81:15899,,Senneville Place,,48.942646027,1.7491309643,,,1,,,0,
StopArea:81:15909,,Lombardie,,48.94285202,1.7370749712,,,1,,,0,
StopArea:81:15911,,Saint Martin,,48.944488525,1.7353579998,,,1,,,0,
StopArea:81:15913,,Tilleuls,,48.951686859,1.7354650497,,,1,,,0,
StopArea:81:15915,,Plagne,,48.961055756,1.7428619862,,,1,,,0,
StopArea:81:15917,,Technodes,,48.962303162,1.7351980209,,,1,,,0,
StopArea:81:15919,,Cytises,,48.96131134,1.7320430279,,,1,,,0,
StopArea:81:15921,,Convois,,48.96529007,1.7312120199,,,1,,,0,
StopArea:81:15923,,GUERVILLE Castors,,48.969184875,1.7300339937,,,1,,,0,
StopArea:81:15925,,Clos Fours,,48.971698761,1.7305430174,,,1,,,0,
StopArea:81:15927,,Maupomet,,48.975593567,1.7314050198,,,1,,,0,
StopArea:81:15802,,Chantereine,,48.977939606,1.7236709595,,,1,,,0,
StopArea:81:15929,,Vaucouleurs,,48.979496002,1.7283560038,,,1,,,0,
StopArea:81:15931,,Tuilerie,,48.980648041,1.7244310379,,,1,,,0,
StopArea:81:15933,,Herberts,,48.978832245,1.7223910093,,,1,,,0,
StopArea:58:1120,,Calmette,,48.983707428,1.7156800032,,,1,,,0,
StopArea:81:15939,,Maison des Syndicats,,48.977428436,1.730790019,,,1,,,0,
StopArea:81:15942,,Pont Chapart,,48.995780945,1.6351720095,,,1,,,0,
StopArea:81:15428,,Collège Sully,,49.001110077,1.6449819803,,,1,,,0,
StopArea:81:15948,,Henri IV,,49.00100708,1.6290160418,,,1,,,0,
StopArea:81:15950,,Mûriers 1,,49.000091553,1.6232099533,,,1,,,0,
StopArea:81:15952,,Grande Maison 1,,49.001464844,1.6211769581,,,1,,,0,
StopArea:81:15954,,Fauvettes,,48.997447968,1.6197849512,,,1,,,0,
StopArea:81:15956,,Mésanges,,48.999759674,1.6198689938,,,1,,,0,
StopArea:81:15958,,Grande Maison 2,,49.001464844,1.6211769581,,,1,,,0,
StopArea:81:15960,,Mûriers 2,,49.000091553,1.6232099533,,,1,,,0,
StopArea:81:15962,,Pasteur,,48.998321533,1.626199007,,,1,,,0,
StopArea:81:15964,,Val Fleuri,,48.995880127,1.623842001,,,1,,,0,
StopArea:81:15966,,Lommoye,,48.995098114,1.6288859844,,,1,,,0,
StopArea:81:15126,,Collège Albert Camus,,48.989719391,1.8197339773,,,1,,,0,
StopArea:81:15895,,Place du Général de Gaulle,,48.985557556,1.8103679419,,,1,,,0,
StopArea:8738156,,GARE DE GARGENVILLE,,48.983562469,1.8103669882,,,1,,,0,
StopArea:81:15529,,Les Garennes,,48.975971222,1.8013119698,,,1,,,0,
StopArea:81:6654,,Port Autonome,,48.979545593,1.7532509565,,,1,,,0,
StopArea:81:6186,,Eglise,,49.027202606,1.7508000135,,,1,,,0,
StopArea:81:6190,,Mairie,,49.02463913,1.7564660311,,,1,,,0,
StopArea:81:6188,,Dîme,,49.021209717,1.7594350576,,,1,,,0,
StopArea:81:14807,,La Maisonneraie,,49.006523132,1.7799930573,,,1,,,0,
StopArea:81:15386,,Mairie,,49.008094788,1.77718997,,,1,,,0,
StopArea:81:15903,,Route de Guitrancourt,,48.990550995,1.7679640055,,,1,,,0,
StopArea:81:14892,,Docteur Roux,,48.989040375,1.7381030321,,,1,,,0,
StopArea:81:6597,,Coutures,,48.988521576,1.7348519564,,,1,,,0,
StopArea:81:6614,,Foyer Marie Baudry,,48.990524292,1.7325069904,,,1,,,0,
StopArea:81:6596,,Corot,,48.993412018,1.7265599966,,,1,,,0,
StopArea:23:450,,La Maladrerie,,48.913757324,2.0225279331,,,1,,,0,
StopArea:15:124,,Ecole Normale,,48.901134491,2.068406105,,,1,,,0,
StopArea:15:113,,Jehan Alain,,48.900737762,2.0877940655,,,1,,,0,
StopArea:8775809,,GARE DE ST GERMAIN EN LAYE,,48.89824295,2.0952439308,,,1,,,0,
StopArea:15:125,,Pereire,,48.901039124,2.0661799908,,,1,,,0,
StopArea:81:6453,,Mairie,,48.988895416,1.7928830385,,,1,,,0,
StopArea:81:6431,,Carrefour,,48.99130249,1.7947829962,,,1,,,0,
StopArea:81:6435,,Cimetière,,48.993972778,1.7958409786,,,1,,,0,
StopArea:81:6433,,Charvets,,48.993423462,1.7984069586,,,1,,,0,
StopArea:81:6427,,Bardeaux,,48.991985321,1.7997059822,,,1,,,0,
StopArea:81:6254,,Maryse,,48.991146088,1.8012440205,,,1,,,0,
StopArea:81:6273,,Les Sablons,,48.989376068,1.8012349606,,,1,,,0,
StopArea:81:6252,,Jean Raty,,48.988193512,1.8015880585,,,1,,,0,
StopArea:81:7543,,Les Guignières,,48.973583221,1.7767169476,,,1,,,0,
StopArea:23:210,,Jean Jaurès,,48.974636078,1.8024829626,,,1,,,0,
StopArea:23:206,,Gabriel Péri,,48.975006104,1.80509305,,,1,,,0,
StopArea:8738676,,GARE D'EPONE MEZIERES,,48.96308136,1.8084980249,,,1,,,0,
StopArea:81:15424,,Couture,,48.988082886,1.7995820045,,,1,,,0,
StopArea:81:6697,,Mairie,,48.920490265,1.585515976,,,1,,,0,
StopArea:81:6701,,Versailles,,48.919483185,1.5872830153,,,1,,,0,
StopArea:81:6002,,Grande Rue,,48.904018402,1.6198040247,,,1,,,0,
StopArea:81:6129,,Eglise / Mairie,,48.890426636,1.5779919624,,,1,,,0,
StopArea:81:7816,,Eglise,,48.881881714,1.5752220154,,,1,,,0,
StopArea:81:7229,,Eglise,,48.90284729,1.5525209904,,,1,,,0,
StopArea:81:285,,Place de l'Abreuvoir,,48.896568298,1.5333759785,,,1,,,0,
StopArea:81:261,,Gâtines Rouges,,48.881141663,1.5100940466,,,1,,,0,
StopArea:81:287,,Mairie,,48.867290497,1.4720740318,,,1,,,0,
StopArea:81:257,,Pérou,,48.860778809,1.4490590096,,,1,,,0,
StopArea:81:255,,Château,,48.858146667,1.43927598,,,1,,,0,
StopArea:81:198,,Gambetta,,48.867168427,1.4190659523,,,1,,,0,
StopArea:81:194,,D143,,48.861354828,1.400390029,,,1,,,0,
StopArea:81:54,,Tennis,,48.849887848,1.3810470104,,,1,,,0,
StopArea:81:52,,Mairie,,48.846187592,1.3741019964,,,1,,,0,
StopArea:81:176,,Marcilly sur Eure,,48.825485229,1.3451089859,,,1,,,0,
StopArea:81:263,,Châtelet,,48.749595642,1.3870170116,,,1,,,0,
StopArea:81:281,,Oriels,,48.738449097,1.3908360004,,,1,,,0,
StopArea:81:277,,Le Lièvre d'Or,,48.735866547,1.3882540464,,,1,,,0,
StopArea:81:265,,Edgar Degas,,48.731578827,1.3848669529,,,1,,,0,
StopArea:81:283,,Schuman,,48.727981567,1.3813660145,,,1,,,0,
StopArea:81:271,,Jules Ferry,,48.726833344,1.3767130375,,,1,,,0,
StopArea:81:279,,Notre Dame des Rochelles,,48.725170135,1.368639946,,,1,,,0,
StopArea:81:267,,Gare Routière,,48.732135773,1.3718930483,,,1,,,0,
StopArea:81:6248,,Hanneucourt,,48.992664337,1.8243819475,,,1,,,0,
StopArea:81:6270,,Pugno,,48.993019104,1.82317698,,,1,,,0,
StopArea:81:15156,,Vigneux,,48.99199295,1.8171310425,,,1,,,0,
StopArea:81:15124,,Casanova,,48.991703033,1.8132690191,,,1,,,0,
StopArea:81:6275,,Poste,,48.989086151,1.8125309944,,,1,,,0,
StopArea:81:15128,,Chênes,,48.986812592,1.8138439655,,,1,,,0,
StopArea:81:6264,,Place de la Pointe,,48.98077774,1.8107099533,,,1,,,0,
StopArea:81:6260,,Pierre Brossolette,,48.979549408,1.810757041,,,1,,,0,
StopArea:81:6277,,Victor Hugo,,48.976196289,1.809507966,,,1,,,0,
StopArea:81:15151,,Rangiport,,48.977169037,1.8124059439,,,1,,,0,
StopArea:8711370,,GARE DE ROSNY SOUS BOIS,,48.870803833,2.4856979847,,,1,,,0,
StopArea:79:3038,,ROSNY-SOUS-BOIS - Jean Jaurès,,48.870979309,2.4863269329,,,1,,,0,
StopArea:79:3039,,ROSNY-SOUS-BOIS - Marché des Boutours,,48.868293762,2.4859108925,,,1,,,0,
StopArea:79:3040,,ROSNY-SOUS-BOIS - Pascal,,48.864414215,2.4879980087,,,1,,,0,
StopArea:79:3041,,ROSNY-SOUS-BOIS - Faidherbe,,48.861545563,2.4893920422,,,1,,,0,
StopArea:79:3042,,ROSNY-SOUS-BOIS - Charles De Gaulle,,48.861999512,2.4921588898,,,1,,,0,
StopArea:79:3043,,ROSNY-SOUS-BOIS - Missak Manouchian,,48.864105225,2.4968779087,,,1,,,0,
StopArea:79:3044,,ROSNY-SOUS-BOIS - Saint-Odile,,48.867809296,2.4979391098,,,1,,,0,
StopArea:79:3045,,ROSNY-SOUS-BOIS - Mondor,,48.869491577,2.4955050945,,,1,,,0,
StopArea:79:3046,,ROSNY-SOUS-BOIS - Emile Bellepêche,,48.870689392,2.4957399368,,,1,,,0,
StopArea:79:3047,,ROSNY-SOUS-BOIS - Etang à l'eau,,48.870536804,2.5000178814,,,1,,,0,
StopArea:79:3048,,ROSNY-SOUS-BOIS - J. Duclos,,48.871044159,2.4989159107,,,1,,,0,
StopArea:79:3049,,ROSNY-SOUS-BOIS - Casanova,,48.87329483,2.4966480732,,,1,,,0,
StopArea:79:3029,,ROSNY-SOUS-BOIS - Letessier,,48.874172211,2.4932029247,,,1,,,0,
StopArea:79:3027,,ROSNY-SOUS-BOIS - Hôtel de Ville,,48.871780396,2.4874739647,,,1,,,0,
StopArea:21:200,,Place Louvain,,48.976261139,1.8449529409,,,1,,,0,
StopArea:79:1003,,Elisab. Annexe Mairie,,48.972167969,1.8454099894,,,1,,,0,
StopArea:8738673,,GARE D'AUBERGENVILLE ELISABETHVILLE,,48.971839905,1.8484619856,,,1,,,0,
StopArea:79:1005,,Clos Reine,,48.968345642,1.8499850035,,,1,,,0,
StopArea:21:60,,Cimetière,,48.963790894,1.8512519598,,,1,,,0,
StopArea:79:1007,,Gaston Jouillerat,,48.961437225,1.853973031,,,1,,,0,
StopArea:79:1008,,Hotel de Ville,,48.958503723,1.8554199934,,,1,,,0,
StopArea:79:1009,,Coopération,,48.959186554,1.8574739695,,,1,,,0,
StopArea:79:1010,,Allée des Bois,,48.959941864,1.8615620136,,,1,,,0,
StopArea:79:1011,,Jean Moulin,,48.957248688,1.8623919487,,,1,,,0,
StopArea:79:1012,,Les Sources,,48.955387115,1.859951973,,,1,,,0,
StopArea:21:71,,Division Leclerc,,48.956302643,1.8581629992,,,1,,,0,
StopArea:79:1013,,Centre Commercial,,48.954292297,1.8604259491,,,1,,,0,
StopArea:21:58,,Acacias,,48.953273773,1.8563840389,,,1,,,0,
StopArea:79:1015,,Louis Pergaud,,48.954940796,1.8545800447,,,1,,,0,
StopArea:79:1016,,Montgardé,,48.956768036,1.852965951,,,1,,,0,
StopArea:21:62,,Clinique du Montgardé,,48.957275391,1.8482509851,,,1,,,0,
StopArea:79:1018,,8 Mai 1945,,48.959465027,1.8510169983,,,1,,,0,
StopArea:21:66,,D113,,48.961639404,1.8551549911,,,1,,,0,
StopArea:79:1021,,Elisab. Place de l'Etoile,,48.973033905,1.8459470272,,,1,,,0,
StopArea:8739361,,GARE DE LONGJUMEAU,,48.702697754,2.2958540916,,,1,,,0,
StopArea:29:497,,PLACE CHARLES STEBER,,48.697559357,2.2933828831,,,1,,,0,
StopArea:46:9966,,Hôpital,,48.691741943,2.2900691032,,,1,,,0,
StopArea:46:14947,,Docteur Cathelin,,48.687820435,2.2885389328,,,1,,,0,
StopArea:79:2006,,Bel Air,,48.686710358,2.2909350395,,,1,,,0,
StopArea:79:2007,,La Rocade,,48.687644958,2.2947890759,,,1,,,0,
StopArea:79:2008,,Coteaux,,48.690200806,2.2952620983,,,1,,,0,
StopArea:79:2009,,Cimetière,,48.689231873,2.2989559174,,,1,,,0,
StopArea:46:14945,,Clinique de l'Yvette,,48.689170837,2.3014810085,,,1,,,0,
StopArea:46:14943,,Foyer Avril,,48.691757202,2.2978839874,,,1,,,0,
StopArea:46:9976,,Théâtre,,48.69575119,2.2989099026,,,1,,,0,
StopArea:59:4890575,,Général de Gaulle,,48.697502136,2.2994430065,,,1,,,0,
StopArea:79:3003,,ROSNY-SOUS-BOIS - Piscine,,48.87153244,2.4823639393,,,1,,,0,
StopArea:79:3004,,ROSNY-SOUS-BOIS - Z.A. Nanteuil,,48.876914978,2.4756889343,,,1,,,0,
StopArea:79:3005,,ROSNY-SOUS-BOIS - Gabriel Peri,,48.878761292,2.4726560116,,,1,,,0,
StopArea:79:3006,,ROSNY-SOUS-BOIS - Chemin des Soudoux,,48.879821777,2.4699881077,,,1,,,0,
StopArea:79:3007,,ROSNY-SOUS-BOIS - Ruelle Boissière,,48.879802704,2.4650280476,,,1,,,0,
StopArea:79:3008,,ROSNY-SOUS-BOIS - La Boissière,,48.878406525,2.4575440884,,,1,,,0,
StopArea:79:3010,,ROSNY-SOUS-BOIS - Etienne Dolet,,48.876804352,2.467854023,,,1,,,0,
StopArea:79:3011,,ROSNY-SOUS-BOIS - Rue de l'Acacias,,48.873649597,2.4702579975,,,1,,,0,
StopArea:79:3012,,ROSNY-SOUS-BOIS - Fort de Rosny,,48.871284485,2.4721589088,,,1,,,0,
StopArea:79:3013,,ROSNY-SOUS-BOIS - Grand Verger,,48.872802734,2.4783890247,,,1,,,0,
StopArea:79:3014,,ROSNY-SOUS-BOIS - Eglise de Rosny-sous-B,,48.873687744,2.4831330776,,,1,,,0,
StopArea:79:3052,,ROSNY-SOUS-BOIS - Gardebled,,48.874919891,2.4840219021,,,1,,,0,
StopArea:79:3053,,ROSNY-SOUS-BOIS - Jean de Mailly,,48.878276825,2.4853129387,,,1,,,0,
StopArea:8711369,,GARE DE ROSNY BOIS PERRIER,,48.882785797,2.481595993,,,1,,,0,
StopArea:79:3020,,ROSNY-SOUS-BOIS - Jaques Offenbach,,48.881744385,2.4859359264,,,1,,,0,
StopArea:79:3021,,ROSNY-SOUS-BOIS - Alsace - Lorraine,,48.882858276,2.4874920845,,,1,,,0,
StopArea:79:3022,,ROSNY-SOUS-BOIS - Les Marnaudes,,48.883132935,2.490926981,,,1,,,0,
StopArea:79:3023,,ROSNY-SOUS-BOIS - EHPAD,,48.882583618,2.4910209179,,,1,,,0,
StopArea:79:3024,,ROSNY-SOUS-BOIS - Jean Mermoz,,48.880889893,2.4889988899,,,1,,,0,
StopArea:79:3025,,ROSNY-SOUS-BOIS - Barroy,,48.879405975,2.4873731136,,,1,,,0,
StopArea:79:3016,,ROSNY-SOUS-BOIS - Van Derheyden,,48.877567291,2.4847929478,,,1,,,0,
StopArea:79:3054,,ROSNY-SOUS-BOIS - De Gaulle - Péri,,48.877197266,2.4798870087,,,1,,,0,
StopArea:79:3028,,ROSNY-SOUS-BOIS - Beaulieu,,48.871932983,2.4910299778,,,1,,,0,
StopArea:79:3030,,ROSNY-SOUS-BOIS - Chemin d'Avron,,48.876415253,2.4999608994,,,1,,,0,
StopArea:79:3031,,ROSNY-SOUS-BOIS - Avenue de l'Ouest,,48.874778748,2.5070888996,,,1,,,0,
StopArea:79:3032,,ROSNY-SOUS-BOIS - J.D d'Angers,,48.878196716,2.5065550804,,,1,,,0,
StopArea:79:3033,,ROSNY-SOUS-BOIS - Danton,,48.877281189,2.5040309429,,,1,,,0,
StopArea:79:3035,,ROSNY-SOUS-BOIS - Berthauds,,48.879360199,2.4970209599,,,1,,,0,
StopArea:79:3036,,ROSNY-SOUS-BOIS - 11 Novembre,,48.880737305,2.4939858913,,,1,,,0,
StopArea:79:3037,,ROSNY-SOUS-BOIS  - Nungesser et Coli,,48.879959106,2.4900870323,,,1,,,0,
StopArea:79:3026,,ROSNY-SOUS-BOIS - Madeleine,,48.874790192,2.4863379002,,,1,,,0,
StopArea:79:2026,,Basch - Poulettes,,48.684864044,2.3059499264,,,1,,,0,
StopArea:79:2014,,BALLANVILLIERS - Ballainvilliers Centre,,48.675960541,2.2929799557,,,1,,,0,
StopArea:79:2015,,BALLAINVILLIERS - Stade,,48.676715851,2.2975809574,,,1,,,0,
StopArea:79:2016,,Templiers,,48.680782318,2.306333065,,,1,,,0,
StopArea:8739364,,GARE DE GRAVIGNY BALIZY,,48.685009003,2.3172180653,,,1,,,0,
StopArea:79:2018,,Rue de Savigny,,48.687770844,2.3210990429,,,1,,,0,
StopArea:79:2019,,GRAVIGNY - Rue Lavoisier,,48.691886902,2.3287420273,,,1,,,0,
StopArea:79:2027,,MORANGIS - Maison de la Petite Enfance,,48.698123932,2.3308858871,,,1,,,0,
StopArea:79:2028,,MORANGIS - Collège M.Vignaud,,48.700443268,2.3336970806,,,1,,,0,
StopArea:79:2029,,MORANGIS - Centre Commercial,,48.697120667,2.3329100609,,,1,,,0,
StopArea:79:2020,,GRAVIGNY - Pasteur,,48.695346832,2.3278040886,,,1,,,0,
StopArea:79:2021,,GRAVIGNY - Morin,,48.692947388,2.3179209232,,,1,,,0,
StopArea:79:2022,,Pont des Maures,,48.691490173,2.3164010048,,,1,,,0,
StopArea:79:2023,,Georges Brassens,,48.689056396,2.3187100887,,,1,,,0,
StopArea:46:14948,,Balizy,,48.683013916,2.3104310036,,,1,,,0,
StopArea:79:2034,,Jesse Owens,,48.707500458,2.3233339787,,,1,,,0,
StopArea:79:2035,,Etrier Chiroquois,,48.708919525,2.3184719086,,,1,,,0,
StopArea:79:2072,,Cimetière vers Champarts,,48.707580566,2.311300993,,,1,,,0,
StopArea:49:50670,,Champarts,,48.714221954,2.3010599613,,,1,,,0,
StopArea:79:2074,,Gay Lussac,,48.710079193,2.2975690365,,,1,,,0,
StopArea:79:2075,,Victor Hugo,,48.704753876,2.2967720032,,,1,,,0,
StopArea:59:7376093,,Cimetière,,48.707344055,2.3113689423,,,1,,,0,
StopArea:59:7376091,,Collège,,48.705848694,2.3138720989,,,1,,,0,
StopArea:79:2037,,Hôtel de Ville,,48.702037811,2.3141078949,,,1,,,0,
StopArea:79:2079,,Fontaine Augère,,48.695075989,2.3165209293,,,1,,,0,
StopArea:79:2080,,Maison de la Petite Enf,,48.692848206,2.3150019646,,,1,,,0,
StopArea:79:2039,,Saint-Eloi,,48.695667267,2.3074369431,,,1,,,0,
StopArea:8739363,,GARE DE CHILLY MAZARIN,,48.699920654,2.3073070049,,,1,,,0,
StopArea:79:2083,,CHILLY-MAZARIN - Aubrac,,48.693683624,2.3172819614,,,1,,,0,
StopArea:59:6041889,,GRAND JARDIN,,48.694473267,2.3108639717,,,1,,,0,
StopArea:59:6041891,,Elisée Reclus,,48.696781158,2.3129038811,,,1,,,0,
StopArea:59:4890643,,Place de la Libération,,48.702503204,2.3202741146,,,1,,,0,
StopArea:57:8070,,Rond Point du Pileu,,48.730190277,2.2410929203,,,1,,,0,
StopArea:57:8050,,Lycée de Vilgénis,,48.731365204,2.2541840076,,,1,,,0,
StopArea:79:2046,,Les Graviers,,48.726623535,2.250772953,,,1,,,0,
StopArea:8739357,,GARE DE MASSY PALAISEAU,,48.724754333,2.2584650517,,,1,,,0,
StopArea:79:2048,,Fustel de Coulange,,48.732475281,2.2655799389,,,1,,,0,
StopArea:59:5121942,,Emile Zola,,48.736663818,2.2629520893,,,1,,,0,
StopArea:79:2050,,Bièvre / La Poterne,,48.737789154,2.2720820904,,,1,,,0,
StopArea:8738328,,GARE DE MASSY VERRIERES,,48.734584808,2.2730851173,,,1,,,0,
StopArea:49:49980,,Mairie,,48.730106354,2.2712900639,,,1,,,0,
StopArea:79:2053,,Centre ville,,48.729675293,2.2764260769,,,1,,,0,
StopArea:59:7376107,,Jean Mermoz,,48.728752136,2.2800350189,,,1,,,0,
StopArea:79:2055,,Paul Baillart,,48.731567383,2.2817161083,,,1,,,0,
StopArea:79:2056,,Les Franciades,,48.731830597,2.2870290279,,,1,,,0,
StopArea:59:3764019,,OPERA THEATRE,,48.731769562,2.2909150124,,,1,,,0,
StopArea:79:2058,,Marché de Narbonne,,48.736282349,2.29220891,,,1,,,0,
StopArea:79:2059,,Périgord - Languedoc,,48.736129761,2.2980930805,,,1,,,0,
StopArea:59:7376119,,Biarritz,,48.734840393,2.2940349579,,,1,,,0,
StopArea:79:2032,,Hôtel de Ville,,48.693138123,2.2947580814,,,1,,,0,
StopArea:79:2071,,Marché,,48.696788788,2.2922289371,,,1,,,0,
StopArea:59:2224144,,Aéroport CDG Terminal 2 (E-F),,49.004405975,2.5774850845,,,1,,,0,
StopArea:59:2224147,,Aéroport CDG Terminal 2 (A-B-C-D),,49.003639221,2.5643899441,,,1,,,0,
StopArea:77:22,,Terminal Pw (Résa Parking Eco),,49.007545471,2.6081850529,,,1,,,0,
StopArea:77:21,,Aéroport CDG Terminal 2G,,49.00592804,2.6030540466,,,1,,,0,
StopArea:59677,,Parc Pr,,49.008964539,2.5447878838,,,1,,,0,
StopArea:59681,,Parc Px,,49.010044098,2.5706110001,,,1,,,0,
StopArea:59320,,8 MAI 1945,,48.920772552,2.4105908871,,,1,,,0,
StopArea:59080,,AVENIR,,48.918453217,2.4180378914,,,1,,,0,
StopArea:70:50005629,,Cité Gagarine,,48.921531677,2.421642065,,,1,,,0,
StopArea:70:50005879,,Collège Evariste Galois,,48.945453644,2.5196070671,,,1,,,0,
StopArea:70:50005919,,Avenue de Savigny,,48.944885254,2.5175309181,,,1,,,0,
StopArea:70:50005266,,Lilas,,48.950069427,2.5115520954,,,1,,,0,
StopArea:70:50005191,,Collège Debussy,,48.952747345,2.5102849007,,,1,,,0,
StopArea:70:50110666,,Vélodrome / Chagall,,48.950359344,2.5054609776,,,1,,,0,
StopArea:70:50005239,,Le Hameau,,48.948894501,2.5032999516,,,1,,,0,
StopArea:70:50005200,,Rue Dupuis,,48.948078156,2.5011210442,,,1,,,0,
StopArea:70:50005327,,Les saules,,48.949558258,2.499161005,,,1,,,0,
StopArea:70:50005207,,Les Etangs,,48.950737,2.498073101,,,1,,,0,
StopArea:70:50005306,,Piscine,,48.943969727,2.4864690304,,,1,,,0,
StopArea:70:50005385,,Collège Cotton,,48.94190979,2.4756450653,,,1,,,0,
StopArea:70:50005427,,Isaac Newton,,48.944122314,2.4723289013,,,1,,,0,
StopArea:70:50005367,,11 / 14 Avenue Einstein,,48.945774078,2.4706549644,,,1,,,0,
StopArea:70:50005365,,Armand Esders,,48.947986603,2.4671781063,,,1,,,0,
StopArea:70:50005429,,Rond Point Pablo Néruda,,48.949954987,2.4651460648,,,1,,,0,
StopArea:70:50005390,,Cimetière du Blanc-Mesnil,,48.950145721,2.4568231106,,,1,,,0,
StopArea:59:7899191,,Maurice Audin,,48.948879242,2.4511129856,,,1,,,0,
StopArea:70:50005164,,Juste Heras,,48.950443268,2.4444069862,,,1,,,0,
StopArea:70:50005810,,Lénine,,48.95009613,2.4395349026,,,1,,,0,
StopArea:70:50005617,,Musée de l'Air et de l'Espace,,48.947780609,2.4374709129,,,1,,,0,
StopArea:59:7899271,,Diderot,,48.944858551,2.4347910881,,,1,,,0,
StopArea:59:7899272,,Michelet / Parc des Expositions,,48.943264008,2.4333639145,,,1,,,0,
StopArea:59:4238743,,La Comète,,48.9414711,2.4213941097,,,1,,,0,
StopArea:70:50005473,,GARE DE DUGNY - LA COURNEUVE,,48.943950653,2.4119369984,,,1,,,0,
StopArea:70:50005285,,Le Merisier,,48.950107574,2.4954380989,,,1,,,0,
StopArea:8727145,,Gare de Villepinte,,48.962993622,2.5118160248,,,1,,,0,
StopArea:70:50005347,,Collège Victor Hugo,,48.957866669,2.4949219227,,,1,,,0,
StopArea:70:50005209,,Des nénuphars,,48.952476501,2.4987699986,,,1,,,0,
StopArea:70:50005334,,Le Suroît,,48.952651978,2.4953570366,,,1,,,0,
StopArea:70:50005161,,La Brise,,48.95275116,2.4923009872,,,1,,,0,
StopArea:70:50005144,,Auguste Renoir,,48.952114105,2.4906840324,,,1,,,0,
StopArea:70:50110686,,Ô Parinor / Louis Armand,,48.955566406,2.4806420803,,,1,,,0,
StopArea:70:50005300,,André Citroën,,48.954120636,2.4766330719,,,1,,,0,
StopArea:59:4035750,,Cosmonautes,,48.949268341,2.4556410313,,,1,,,0,
StopArea:59:4117697,,Altrincham,,48.948375702,2.4512109756,,,1,,,0,
StopArea:70:50005418,,Jules Guesde,,48.944114685,2.4466381073,,,1,,,0,
StopArea:70:50005424,,Marx Dormoy,,48.943031311,2.4407150745,,,1,,,0,
StopArea:70:50005361,,Abbé Niort,,48.940647125,2.4331190586,,,1,,,0,
StopArea:70:50005353,,Eglise St Nicolas,,48.939376831,2.4300880432,,,1,,,0,
StopArea:59:4658228,,Pierre Curie,,48.936733246,2.4276340008,,,1,,,0,
StopArea:59:4658226,,Anizan Cavillon / Mairie,,48.934410095,2.4254031181,,,1,,,0,
StopArea:44:50120838,,Jean Jaurès / Division Leclerc,,48.932941437,2.4240450859,,,1,,,0,
StopArea:70:50005610,,Paul Vaillant Couturier,,48.927585602,2.4179689884,,,1,,,0,
StopArea:59:4658220,,Rateau,,48.925144196,2.4153530598,,,1,,,0,
StopArea:59316,,Fort d'Aubervilliers,,48.91450119,2.4040210247,,,1,,,0,
StopArea:70:50005415,,Jacques Salomon,,48.948661804,2.4532310963,,,1,,,0,
StopArea:70:50005281,,Matisse,,48.953971863,2.4991710186,,,1,,,0,
StopArea:11:50017935,,Centre Commercial O'Parinor,,48.955909729,2.4792439938,,,1,,,0,
StopArea:11:50109948,,Cité Emmaüs,,48.949066162,2.4890210629,,,1,,,0,
StopArea:70:50005152,,Blaise Pascal,,48.949913025,2.4823451042,,,1,,,0,
StopArea:70:50005243,,Henri Becquerel,,48.949108124,2.4785909653,,,1,,,0,
StopArea:70:50006073,,Alfred Nobel,,48.946182251,2.481276989,,,1,,,0,
StopArea:70:50005212,,François Arago,,48.945404053,2.4832808971,,,1,,,0,
StopArea:70:50005204,,Edouard Branly,,48.944297791,2.4845740795,,,1,,,0,
StopArea:70:50110718,,Adolphe Pétrement,,48.942577362,2.4863760471,,,1,,,0,
StopArea:70:50005261,,Lefèvre,,48.93901062,2.4899289608,,,1,,,0,
StopArea:70:50005270,,Louis Coutant,,48.938453674,2.4890179634,,,1,,,0,
StopArea:70:50005263,,Marcel Sembat,,48.935546875,2.4888389111,,,1,,,0,
StopArea:70:50005255,,Jean Charcot,,48.934467316,2.4908819199,,,1,,,0,
StopArea:8727141,,Gare d'Aulnay sous Bois,,48.93195343,2.4949860573,,,1,,,0,
StopArea:70:50006078,,Dumont,,48.929931641,2.4953079224,,,1,,,0,
StopArea:70:50005198,,Henri Dunant,,48.927001953,2.4952991009,,,1,,,0,
StopArea:70:50005143,,Avenue de la Plaine,,48.924263,2.4936408997,,,1,,,0,
StopArea:70:50005153,,Ballet,,48.921127319,2.4929630756,,,1,,,0,
StopArea:70:50005241,,Collège Simone Veil,,48.921836853,2.4889829159,,,1,,,0,
StopArea:70:50005294,,Rue d'Orléans,,48.919811249,2.4871630669,,,1,,,0,
StopArea:59:3672191,,Rabelais,,48.917625427,2.4847910404,,,1,,,0,
StopArea:70:50005500,,Jouhaux Blum,,48.917549133,2.4795820713,,,1,,,0,
StopArea:59:3672189,,SUZANNE BUISSON,,48.913902283,2.4807100296,,,1,,,0,
StopArea:59:3672187,,Route d'Aulnay / Jean Moulin,,48.912162781,2.4810049534,,,1,,,0,
StopArea:59:4118165,,Maison de Retraite,,48.911384583,2.4840269089,,,1,,,0,
StopArea:70:50005509,,Ronsard Willon,,48.91337204,2.4877989292,,,1,,,0,
StopArea:59:6869708,,Lycée Claude Nicolas Ledoux,,48.914020538,2.4915819168,,,1,,,0,
StopArea:59:5747173,,Villageoise,,48.911216736,2.4910991192,,,1,,,0,
StopArea:59:3682344,,Hôpital Jean Verdier,,48.908676147,2.4901409149,,,1,,,0,
StopArea:70:50005495,,Galliéni,,48.906066895,2.4874100685,,,1,,,0,
StopArea:70:50005505,,Place Carnot,,48.903331757,2.4834959507,,,1,,,0,
StopArea:59:3682331,,Eglise,,48.902873993,2.480025053,,,1,,,0,
StopArea:59:6682714,,Blanqui / Salengro,,48.900726318,2.4785749912,,,1,,,0,
StopArea:59:4614630,,Baudin,,48.898719788,2.475301981,,,1,,,0,
StopArea:8711340,,Gare de Bondy,,48.894546509,2.4786109924,,,1,,,0,
StopArea:59:3682327,,Edouard Vaillant / Carnot,,48.896755219,2.4801108837,,,1,,,0,
StopArea:59:3682328,,Blanqui / Carnot,,48.900222778,2.4817268848,,,1,,,0,
StopArea:59:5747238,,VILLAGEOISE,,48.911792755,2.491312027,,,1,,,0,
StopArea:70:50005150,,Nonneville,,48.920581818,2.4922249317,,,1,,,0,
StopArea:70:50005290,,De Mun,,48.92181778,2.4955561161,,,1,,,0,
StopArea:70:50005299,,Paul Langevin,,48.924423218,2.4950869083,,,1,,,0,
StopArea:70:50005258,,Jules Jouy,,48.926799774,2.4940779209,,,1,,,0,
StopArea:70:50005175,,Coullemont,,48.929641724,2.4968070984,,,1,,,0,
StopArea:70:50005280,,Maurice De Broglie,,48.947288513,2.4848279953,,,1,,,0,
StopArea:70:50005309,,Poissons,,48.957603455,2.5043270588,,,1,,,0,
StopArea:70:50005325,,Saturne,,48.955875397,2.5016510487,,,1,,,0,
StopArea:70:50005213,,Franisco Ferrer,,48.944206238,2.4955289364,,,1,,,0,
StopArea:70:50005349,,Vieux pays,,48.941768646,2.4981889725,,,1,,,0,
StopArea:70:50005235,,Gérard Philipe,,48.936725616,2.5042910576,,,1,,,0,
StopArea:70:50005302,,Pont de la croix blanche,,48.932674408,2.5038039684,,,1,,,0,
StopArea:70:50005180,,Avenue du Clocher,,48.931739807,2.5011720657,,,1,,,0,
StopArea:70:50005286,,Maréchal Leclerc,,48.927246094,2.4900150299,,,1,,,0,
StopArea:70:50005003,,Alix,,48.925300598,2.4877378941,,,1,,,0,
StopArea:70:50005252,,Havre,,48.923126221,2.4852359295,,,1,,,0,
StopArea:70:50005297,,Strasbourg,,48.921897888,2.4838080406,,,1,,,0,
StopArea:70:50005288,,Marne,,48.919651031,2.4812440872,,,1,,,0,
StopArea:59:5150462,,Etienne Dolet,,48.910484314,2.4751560688,,,1,,,0,
StopArea:59:4614618,,PONT DE BONDY,,48.906139374,2.4695599079,,,1,,,0,
StopArea:59:4614620,,Rue des Peupliers,,48.90568924,2.4649240971,,,1,,,0,
StopArea:59008,,AUGUSTE DELAUNE,,48.906215668,2.4609770775,,,1,,,0,
StopArea:59342,,BOBIGNY PABLO PICASSO,,48.907085419,2.449559927,,,1,,,0,
StopArea:59:4118161,,Lille,,48.907798767,2.4719130993,,,1,,,0,
StopArea:70:50005329,,St Germain,,48.93037796,2.5062890053,,,1,,,0,
StopArea:70:50005176,,Chanteloup,,48.92767334,2.5084691048,,,1,,,0,
StopArea:70:50005313,,Pont de l'union,,48.925018311,2.5116178989,,,1,,,0,
StopArea:70:50005323,,Gare de l'Abbaye,,48.923675537,2.5141499043,,,1,,,0,
StopArea:8711389,,GARE DE FREINVILLE SEVRAN,,48.927112579,2.5199680328,,,1,,,0,
StopArea:70:50110672,,Léo Lagrange,,48.924476624,2.5224649906,,,1,,,0,
StopArea:55:169,,Charles de Gaulle,,48.91658783,2.5319590569,,,1,,,0,
StopArea:70:50005691,,Président Kennedy,,48.914928436,2.5346961021,,,1,,,0,
